Tipo de dato,Dirección,Dirección auxiliar,Tipo de vía,Nombre de la vía,Tipo de número,Número,Distrito,Código de distrito,Latitud (geo),Longitud (geo),X (UTM),Y (UTM),Google Maps,Día de la semana,Turno,Hora de inicio,Hora de fin,Residuos admisibles
Punto limpio móvil,"Calle Arrieta, 15",,Calle,Arrieta,P,15,Centro,1,40.41918013,-3.711069993,439675.8008,4474526.499,https://goo.gl/maps/w4y1woxHyhGsQCZv9,Martes,Mañana,10:30:00,12:00:00,http://run.gob.es/PuntoMOVILResiduos
Punto limpio móvil,"Calle Barquillo, 7",,Calle,Barquillo,P,7,Centro,1,40.42083,-3.69581,440971.8478,4474699.329,https://goo.gl/maps/hsHdwffQauSr7Y4aA,Sábado,Mañana,07:00:00,08:30:00,http://run.gob.es/PuntoMOVILResiduos
Punto limpio móvil,"Plaza Cebada, 5-7",,Plaza,Cebada,P,5-7,Centro,1,40.41132,-3.70927,439790.022,4473664.083,https://goo.gl/maps/5r6sz7QbmnXoXr8B9,Sábado,Tarde,14:00:00,15:30:00,http://run.gob.es/PuntoMOVILResiduos
Punto limpio móvil,"Calle Conde Duque, 30",,Calle,Conde Duque,P,30,Centro,1,40.42779649,-3.710134496,439762.852,4475482.275,https://goo.gl/maps/jGjBMu8PS57ZCmaG9,Martes,Mañana,07:00:00,08:30:00,http://run.gob.es/PuntoMOVILResiduos
Punto limpio móvil,"Glorieta Embajadores, 10",Esquina Calle Embajadores,Glorieta,Embajadores,P,10,Centro,1,40.40532,-3.70286,440360.0731,4472982.46,https://goo.gl/maps/Q1UWpobP3KfTyDSh8,Sábado,Tarde,17:30:00,19:00:00,http://run.gob.es/PuntoMOVILResiduos
Punto limpio móvil,"Calle Espíritu Santo, 26",Entre los números 26 y 28 (zona de carga y descarga),Calle,Espíritu Santo,P,26,Centro,1,40.42546013,-3.703639993,440311.6872,4475218.531,https://goo.gl/maps/uWkwCSk8FyKt47k3A,Sábado,Tarde,15:45:00,17:15:00,http://run.gob.es/PuntoMOVILResiduos
Punto limpio móvil,"Plaza Lavapiés, 8",Zona de carga y descarga,Plaza,Lavapiés,P,8,Centro,1,40.40868013,-3.701249994,440499.6469,4473354.346,,Sábado,Tarde,15:45:00,17:15:00,http://run.gob.es/PuntoMOVILResiduos
Punto limpio móvil,Calle Lope de Vega,Frente al número 36,Calle,Lope de Vega,P,S/N,Centro,1,40.41438013,-3.697449994,440827.0687,4473984.492,https://goo.gl/maps/EFj65q8ucc6CY2Et7,Sábado,Mañana,08:45:00,10:15:00,http://run.gob.es/PuntoMOVILResiduos
Punto limpio móvil,"Plaza Mayor, 29-30",Salida Calle Ciudad Rodrigo,Plaza,Mayor,P,29-30,Centro,1,40.41574723,-3.706902053,440026.346,4474142.611,,Sábado,Mañana,10:30:00,12:00:00,http://run.gob.es/PuntoMOVILResiduos
Punto limpio móvil,"Calle Príncipe, 18",,Calle,Príncipe,P,18,Centro,1,40.41528547,-3.700364984,440580.55,4474086.94,https://goo.gl/maps/KiKKZ6x7jNVcx49DA,Martes,Tarde,15:45:00,17:15:00,http://run.gob.es/PuntoMOVILResiduos
Punto limpio móvil,"Calle Ribera de Curtidores, 37A, 37B y 37C",,Calle,Ribera de Curtidores,P,"37A, 37B y 37C",Centro,1,40.40656682,-3.707154966,439996.735,4473123.762,https://goo.gl/maps/jKvzJjt2WLoBHpaP6,Martes,Tarde,19:15:00,20:45:00,http://run.gob.es/PuntoMOVILResiduos
Punto limpio móvil,"Glorieta Ruíz Jiménez, 8",,Glorieta,Ruíz Jiménez,P,8,Centro,1,40.42924193,-3.705722844,440138.355,4475639.72,https://goo.gl/maps/jC96v18jidiyDNcG6,Martes,Mañana,08:45:00,10:15:00,http://run.gob.es/PuntoMOVILResiduos
Punto limpio móvil,"Plaza Santa Bárbara, 5",,Plaza,Santa Bárbara,P,5,Centro,1,40.42748313,-3.696388041,440928.63,4475438.21,,Martes,Tarde,14:00:00,15:30:00,http://run.gob.es/PuntoMOVILResiduos
Punto limpio móvil,"Calle Santa Isabel, 47",,Calle,Santa Isabel,P,47,Centro,1,40.40958069,-3.696127206,440935.101,4473450.872,https://goo.gl/maps/jrMy4KLHSRpFJicAA,Martes,Mañana,12:15:00,13:45:00,http://run.gob.es/PuntoMOVILResiduos
Punto limpio móvil,"Calle Segovia, 20",,Calle,Segovia,P,20,Centro,1,40.41397013,-3.712239993,439571.8809,4473948.99,https://goo.gl/maps/oWQY9oYVm3vqaZiz7,Martes,Tarde,17:30:00,19:00:00,http://run.gob.es/PuntoMOVILResiduos
Punto limpio móvil,"Calle Silva, 25",,Calle,Silva,P,25,Centro,1,40.4218911,-3.705691,440134.5,4474823.78,https://goo.gl/maps/VFLh7j4Vt9TgtGhD7,Sábado,Tarde,17:30:00,19:00:00,http://run.gob.es/PuntoMOVILResiduos
Punto limpio móvil,"Plaza Tirso de Molina, 16",Zona de carga y descarga,Plaza,Tirso de Molina,P,16,Centro,1,40.41259013,-3.704569993,440221.4059,4473790.594,https://goo.gl/maps/enH2do3NNP6R6r9EA,Sábado,Mañana,12:15:00,13:45:00,http://run.gob.es/PuntoMOVILResiduos
Punto limpio móvil,"Calle Arganda, 2",Frente al número 2,Calle,Arganda,P,2,Arganzuela,2,40.399104,-3.709351,439813.61,4472287.38,https://goo.gl/maps/vfkKwKzh38w9AcEk9,Martes,Tarde,15:45:00,17:15:00,http://run.gob.es/PuntoMOVILResiduos
Punto limpio móvil,"Calle Bustamante, 16",Edificio Ayuntamiento de Madrid,Calle,Bustamante,P,16,Arganzuela,2,40.40046014,-3.688261871,441594.58,4472433.27,https://goo.gl/maps/46a62zrKugFiZAGt7,Jueves,Mañana,08:45:00,10:15:00,http://run.gob.es/PuntoMOVILResiduos
Punto limpio móvil,"Paseo Chopera, 12",,Paseo,Chopera,P,12,Arganzuela,2,40.39317945,-3.698067172,440756.121,4471631.644,https://goo.gl/maps/bBSmZXK7o3E6tUu39,Sábado,Tarde,15:45:00,17:15:00,http://run.gob.es/PuntoMOVILResiduos
Punto limpio móvil,Calle Cobre,Frente al número 5,Calle,Cobre,P,S/N,Arganzuela,2,40.39373013,-3.689229994,441506.6011,4471686.885,https://goo.gl/maps/mJnrT377bHTyQduM7,Martes,Tarde,17:30:00,19:00:00,http://run.gob.es/PuntoMOVILResiduos
Punto limpio móvil,"Paseo Delicias, 68",,Paseo,Delicias,P,68,Arganzuela,2,40.39936013,-3.694309994,441080.3775,4472315.183,https://goo.gl/maps/ogz3E1t6a8xkGotG6,Martes,Mañana,12:15:00,13:45:00,http://run.gob.es/PuntoMOVILResiduos
Punto limpio móvil,"Paseo Delicias, 24",,Paseo,Delicias,P,24,Arganzuela,2,40.4054452,-3.693616009,441144.57,4472990.16,https://goo.gl/maps/LtHjiwVY5GzGB1dWA,Sábado,Mañana,12:15:00,13:45:00,http://run.gob.es/PuntoMOVILResiduos
Punto limpio móvil,"Paseo Delicias, 122",,Paseo,Delicias,P,122,Arganzuela,2,40.39487516,-3.694841268,441031.38,4471817.71,https://goo.gl/maps/GeCJxWDuwCMHGhps8,Sábado,Tarde,14:00:00,15:30:00,http://run.gob.es/PuntoMOVILResiduos
Punto limpio móvil,"Calle Embajadores, 274",,Calle,Embajadores,P,274,Arganzuela,2,40.38549013,-3.689209994,441501.1689,4470772.24,https://goo.gl/maps/WRkxZoki5CFQdR3J7,Martes,Tarde,19:15:00,20:45:00,http://run.gob.es/PuntoMOVILResiduos
Punto limpio móvil,"Paseo Esperanza, 21",,Paseo,Esperanza,P,21,Arganzuela,2,40.40107013,-3.704289993,440234.9732,4472511.692,https://goo.gl/maps/fEUPTPr6N532vPaJ6,Martes,Mañana,08:45:00,10:15:00,http://run.gob.es/PuntoMOVILResiduos
Punto limpio móvil,"Calle Fernando Poo, 36",Esquina Divino Vallés,Calle,Fernando Poo,P,36,Arganzuela,2,40.39662013,-3.699859994,440606.9891,4472014.76,https://goo.gl/maps/Kt4QsTjhEvtr7bpWA,Martes,Mañana,10:30:00,12:00:00,http://run.gob.es/PuntoMOVILResiduos
Punto limpio móvil,"Plaza Francisco Morano, 3",En la rotonda entre las salidas de Paseo Imperial y Paseo de los Pontones,Plaza,Francisco Morano,P,3,Arganzuela,2,40.4046986,-3.716273022,439221.366,4472922.621,https://goo.gl/maps/75kziLvnCz94qUyS8,Sábado,Tarde,19:15:00,20:45:00,http://run.gob.es/PuntoMOVILResiduos
Punto limpio móvil,Calle Fray Luis de León,"Intersección con Calle Juan Sebastián Elcano, 17",Calle,Fray Luis de León,P,S/N,Arganzuela,2,40.40480013,-3.698689994,440713.4576,4472921.948,https://goo.gl/maps/KZYz5HmCzbU2fr738,Martes,Tarde,14:00:00,15:30:00,http://run.gob.es/PuntoMOVILResiduos
Punto limpio móvil,Paseo Juan Antonio Vallejo-Nájera Botas,"Intersección con Plaza Ortega y Munilla, detrás de la entrada a la estación de Cercanías de Pirámides",Paseo,Juan Antonio Vallejo-Nájera Botas,P,S/N,Arganzuela,2,40.40285996,-3.711376364,439635.228,4472715.177,https://goo.gl/maps/wKYt7Xd9bux4S4w67,Sábado,Tarde,17:30:00,19:00:00,http://run.gob.es/PuntoMOVILResiduos
Punto limpio móvil,Calle Juan Duque,Intersección con Calle Fósforo,Calle,Juan Duque,P,S/N,Arganzuela,2,40.41010013,-3.719629993,438941.3928,4473524.501,https://goo.gl/maps/hEdUyKzgzfT8U4o77,Martes,Mañana,07:00:00,08:30:00,http://run.gob.es/PuntoMOVILResiduos
Punto limpio móvil,"Plaza Legazpi, 5",Intersección con Paseo del Molino,Plaza,Legazpi,P,5,Arganzuela,2,40.3907741,-3.694808258,441030.604,4471362.474,https://goo.gl/maps/Myt2ASzDH9eYcoCP9,Sábado,Mañana,08:45:00,10:15:00,http://run.gob.es/PuntoMOVILResiduos
Punto limpio móvil,"Calle Méndez Álvaro, 1",Puerta de Atocha,Calle,Méndez Álvaro,P,1,Arganzuela,2,40.40676885,-3.692316724,441255.97,4473136.22,https://goo.gl/maps/GzyZ7Bh2NnF6EWNP8,Martes,Mañana,10:30:00,12:00:00,http://run.gob.es/PuntoMOVILResiduos
Punto limpio móvil,"Calle Méndez Álvaro, 44",Edificio Repsol,Calle,Méndez Álvaro,P,44,Arganzuela,2,40.39852299,-3.683860815,441966.39,4472215.35,https://goo.gl/maps/xKTu8EzA6uiaBkfeA,Jueves,Mañana,07:00:00,08:30:00,http://run.gob.es/PuntoMOVILResiduos
Punto limpio móvil,"Paseo Santa María de la Cabeza, 64",,Paseo,Santa María de la Cabeza,P,64,Arganzuela,2,40.40051605,-3.699861192,440610.311,4472447.205,https://goo.gl/maps/phm6hfmjiaYokQdj7,Sábado,Mañana,10:30:00,12:00:00,http://run.gob.es/PuntoMOVILResiduos
Punto limpio móvil,"Calle Cerro de la Plata, 3",,Calle,Cerro de la Plata,P,3,Retiro,3,40.40023273,-3.674613586,442752.58,4472399.1,,Martes,Mañana,12:15:00,13:45:00,http://run.gob.es/PuntoMOVILResiduos
Punto limpio móvil,Calle Amado Nervo,Frente al número 12,Calle,Amado Nervo,P,S/N,Retiro,3,40.40922013,-3.674279994,442788.4988,4473396.478,https://goo.gl/maps/QGDyYczjZW5JxKRRA,Jueves,Mañana,10:30:00,12:00:00,http://run.gob.es/PuntoMOVILResiduos
Punto limpio móvil,"Calle Doctor Esquerdo, 152",,Calle,Doctor Esquerdo,P,152,Retiro,3,40.40368003,-3.672931679,442898.22,4472780.66,https://goo.gl/maps/p6aiU1kfmzm9jxvw8,Lunes,Mañana,12:15:00,13:45:00,http://run.gob.es/PuntoMOVILResiduos
Punto limpio móvil,"Calle Doctor Esquerdo, 94","Esquina Avenida de Nazaret, frente al número 125",Calle,Doctor Esquerdo,P,94,Retiro,3,40.41173813,-3.669933119,443159.445,4473673.17,https://goo.gl/maps/4dNMYPb1JZJ7Gccy7,Lunes,Tarde,15:45:00,17:15:00,http://run.gob.es/PuntoMOVILResiduos
Punto limpio móvil,"Calle Estrella Polar, 22",,Calle,Estrella Polar,P,22,Retiro,3,40.41085914,-3.666186786,443476.57,4473573.2,https://goo.gl/maps/WPowABk8oHt5CrAd6,Lunes,Mañana,07:00:00,08:30:00,http://run.gob.es/PuntoMOVILResiduos
Punto limpio móvil,"Calle Ibiza, 60",,Calle,Ibiza,P,60,Retiro,3,40.41792013,-3.671159994,443060.5614,4474360.158,https://goo.gl/maps/sQ2x3ZTTaLR7akUcA,Jueves,Mañana,08:45:00,10:15:00,http://run.gob.es/PuntoMOVILResiduos
Punto limpio móvil,Calle Marqués de Lozoya,Frente al número 26,Calle,Marqués de Lozoya,P,S/N,Retiro,3,40.41791013,-3.663209994,443735.0149,4474353.956,https://goo.gl/maps/ne2KAZXswSBAJPZ3A,Jueves,Mañana,07:00:00,08:30:00,http://run.gob.es/PuntoMOVILResiduos
Punto limpio móvil,Avenida Menéndez Pelayo,"Frente al número 29, en la acera de El Retiro",Avenida,Menéndez Pelayo,P,S/N,Retiro,3,40.41864668,-3.679030573,442393.457,4474445.906,https://goo.gl/maps/1QRYeYgcLEcB2s7j6,Lunes,Mañana,08:45:00,10:15:00,http://run.gob.es/PuntoMOVILResiduos
Punto limpio móvil,"Avenida Menéndez Pelayo, 95",,Avenida,Menéndez Pelayo,P,95,Retiro,3,40.40670603,-3.679105448,442376.92,4473120.55,https://goo.gl/maps/qWevta69eYaKAhGGA,Lunes,Mañana,10:30:00,12:00:00,http://run.gob.es/PuntoMOVILResiduos
Punto limpio móvil,"Calle Montalbán, 7-9",Edificio Ayuntamiento de Madrid,Calle,Montalbán,P,7-9,Retiro,3,40.41821268,-3.690148005,441449.91,4474405.04,https://goo.gl/maps/PiNCz8MMgnLAd6bBA,Martes,Mañana,08:45:00,10:15:00,http://run.gob.es/PuntoMOVILResiduos
Punto limpio móvil,"Calle Narváez, 82",,Calle,Narváez,P,82,Retiro,3,40.41659121,-3.676571862,442600.3,4474216.15,https://goo.gl/maps/pBnU3fRkigSBmp59A,Lunes,Tarde,17:30:00,19:00:00,http://run.gob.es/PuntoMOVILResiduos
Punto limpio móvil,Paseo Reina Cristina,Frente al número 5 (intersección con Calle Julián Gayarre),Paseo,Reina Cristina,P,S/N,Retiro,3,40.40669013,-3.683459994,442007.414,4473121.633,https://goo.gl/maps/6P4XKnqRqActVTJv7,Jueves,Tarde,14:00:00,15:30:00,http://run.gob.es/PuntoMOVILResiduos
Punto limpio móvil,Calle Saliente,Frente al número 10,Calle,Saliente,P,S/N,Retiro,3,40.41890013,-3.666619994,443446.5464,4474466.022,https://goo.gl/maps/dpvjjibPUsLzbR2G9,Lunes,Tarde,19:15:00,20:45:00,http://run.gob.es/PuntoMOVILResiduos
Punto limpio móvil,"Calle Seco, 2",,Calle,Seco,P,2,Retiro,3,40.39926602,-3.671943717,442978.33,4472290.07,https://goo.gl/maps/dkrMKUpKNkqotwMR6,Lunes,Tarde,14:00:00,15:30:00,http://run.gob.es/PuntoMOVILResiduos
Punto limpio móvil,"Calle Téllez, 26",Intersección con Calle León Gil Palacio,Calle,Téllez,P,26,Retiro,3,40.40235013,-3.679429994,442345.6651,4472637.26,https://goo.gl/maps/tbaXsYk2z1tBbCzi7,Jueves,Tarde,15:45:00,17:15:00,http://run.gob.es/PuntoMOVILResiduos
Punto limpio móvil,"Calle Valderribas, 25C",,Calle,Valderribas,P,25C,Retiro,3,40.40226013,-3.670239994,443125.4302,4472621.316,https://goo.gl/maps/uuupudVvbyKBAKm5A,Jueves,Mañana,12:15:00,13:45:00,http://run.gob.es/PuntoMOVILResiduos
Punto limpio móvil,"Calle Alcalá, 237",Junto a Plaza de Toros de Las Ventas,Calle,Alcalá,P,237,Salamanca,4,40.43116732,-3.663950523,443683.248,4475825.971,,Jueves,Tarde,17:30:00,19:00:00,http://run.gob.es/PuntoMOVILResiduos
Punto limpio móvil,"Calle Alcalde Sáinz de Baranda, 92",Fachada Parque Fuente del Berro,Calle,Alcalde Sainz de Baranda,P,92,Salamanca,4,40.42112075,-3.66260693,443788.85,4474709.95,https://goo.gl/maps/JdEsKxXEffHyX3GC8,Jueves,Mañana,10:30:00,12:00:00,http://run.gob.es/PuntoMOVILResiduos
Punto limpio móvil,"Calle Berlín, 3",,Calle,Berlín,P,3,Salamanca,4,40.44147013,-3.663359994,443741.9257,4476969.204,https://goo.gl/maps/7Z8VnM61f3ZyvZRJ6,Sábado,Tarde,14:00:00,15:30:00,http://run.gob.es/PuntoMOVILResiduos
Punto limpio móvil,"Calle Brescia, 2",Intersección con Calle Biarritz,Calle,Brescia,P,2,Salamanca,4,40.43649844,-3.664382838,443651.029,4476417.999,https://goo.gl/maps/4uPdarffFyV6QW34A,Jueves,Tarde,19:15:00,20:45:00,http://run.gob.es/PuntoMOVILResiduos
Punto limpio móvil,"Calle del Pilar de Zaragoza, 57",Intersección con Calle José Picón,Calle,del Pilar de Zaragoza,P,57,Salamanca,4,40.43575013,-3.671359994,443058.6328,4476339.411,https://goo.gl/maps/rcDNkHyNiyxZrrnz9,Sábado,Mañana,12:15:00,13:45:00,http://run.gob.es/PuntoMOVILResiduos
Punto limpio móvil,"Calle Doctor Esquerdo, 47",,Calle,Doctor Esquerdo,P,47,Salamanca,4,40.42316013,-3.668589994,443282.996,4474940.143,https://goo.gl/maps/T1u9NfKrE66TV4BV8,Sábado,Tarde,15:45:00,17:15:00,http://run.gob.es/PuntoMOVILResiduos
Punto limpio móvil,Calle Francisco Silvela,"Intersección con Calle Florestón Aguilar, junto al Parque Eva Duarte",Calle,Francisco Silvela,P,S/N,Salamanca,4,40.4302759,-3.670415455,443134.133,4475731.165,https://goo.gl/maps/E3bcLedPJkSgo7Dt8,Jueves,Tarde,15:45:00,17:15:00,http://run.gob.es/PuntoMOVILResiduos
Punto limpio móvil,"Calle General Díaz Porlier, 41",,Calle,General Díaz Porlier,P,41,Salamanca,4,40.42837013,-3.677029994,442571.4504,4475523.903,https://goo.gl/maps/nbND1crsKbE4Kf569,Sábado,Tarde,17:30:00,19:00:00,http://run.gob.es/PuntoMOVILResiduos
Punto limpio móvil,"Calle Goya, 107",,Calle,Goya,P,107,Salamanca,4,40.42480849,-3.673029266,442907.8,4475125.97,https://goo.gl/maps/DQkJqK9azn84PaqK9,Jueves,Mañana,08:45:00,10:15:00,http://run.gob.es/PuntoMOVILResiduos
Punto limpio móvil,"Calle Jose Ortega y Gasset, 8",,Calle,Jose Ortega y Gasset,P,8,Salamanca,4,40.43020013,-3.686059994,441807.0592,4475732.941,https://goo.gl/maps/ougsBskwxS19qiiY8,Sábado,Mañana,08:45:00,10:15:00,http://run.gob.es/PuntoMOVILResiduos
Punto limpio móvil,"Calle Juan Bravo, 35-37",Intersección con Calle General Pardiñas,Calle,Juan Bravo,P,35-37,Salamanca,4,40.43269013,-3.678079994,442486.0649,4476004.105,https://goo.gl/maps/qTDXbp1BhHeNoUS6A,Sábado,Mañana,10:30:00,12:00:00,http://run.gob.es/PuntoMOVILResiduos
Punto limpio móvil,"Paseo Marqués de Zafra, 32",,Paseo,Marqués de Zafra,P,32,Salamanca,4,40.42570533,-3.664329592,443646.536,4475219.933,https://goo.gl/maps/jp5bidSi87Nt7RA59,Jueves,Mañana,07:00:00,08:30:00,http://run.gob.es/PuntoMOVILResiduos
Punto limpio móvil,"Calle Narváez, 44",,Calle,Narváez,P,44,Retiro,4,40.41996042,-3.676307861,442625.56,4474589.96,,Jueves,Mañana,10:30:00,12:00:00,http://run.gob.es/PuntoMOVILResiduos
Punto limpio móvil,"Calle Velázquez, 48",,Calle,Velázquez,P,48,Salamanca,4,40.42687862,-3.68389872,441987.53,4475362.834,https://goo.gl/maps/rbVTL7xmkAQynDwo8,Jueves,Mañana,12:15:00,13:45:00,http://run.gob.es/PuntoMOVILResiduos
Punto limpio móvil,"Calle Velázquez, 89",,Calle,Velázquez,P,89,Salamanca,4,40.4340697,-3.683590638,442019.84,4476160.84,https://goo.gl/maps/GcCz7B7XKhHfTZaB6,Jueves,Tarde,14:00:00,15:30:00,http://run.gob.es/PuntoMOVILResiduos
Punto limpio móvil,"Calle Villanueva, 20",Intersección con Calle Claudio Coello,Calle,Villanueva,P,20,Salamanca,4,40.42242013,-3.687069994,441714.6727,4474870.029,https://goo.gl/maps/DmYHeedWhg6A28LXA,Sábado,Tarde,19:15:00,20:45:00,http://run.gob.es/PuntoMOVILResiduos
Punto limpio móvil,"Avenida Alfonso XIII, 65",,Avenida,Alfonso XIII,P,65,Chamartín,5,40.45413668,-3.667255232,443422.2,4478377.68,https://goo.gl/maps/Va4YKRehdzTcWwAS6,Lunes,Tarde,14:00:00,15:30:00,http://run.gob.es/PuntoMOVILResiduos
Punto limpio móvil,"Avenida Alberto Alcocer, 28",,Avenida,Alberto Alcocer,P,28,Chamartín,5,40.45847985,-3.683840815,442019.601,4478870.532,https://goo.gl/maps/JFKEfYT2BJYHMXfr9,Lunes,Tarde,17:30:00,19:00:00,http://run.gob.es/PuntoMOVILResiduos
Punto limpio móvil,"Calle Clara del Rey, 21",,Calle,Clara del Rey,P,21,Chamartín,5,40.4410825,-3.672100324,443000.345,4476931.781,https://goo.gl/maps/GTFCNxqyYfsAPEYA7,Jueves,Tarde,15:45:00,17:15:00,http://run.gob.es/PuntoMOVILResiduos
Punto limpio móvil,Plaza del Perú,Intersección con Avenida Pío XII,Plaza,del Perú,P,S/N,Chamartín,5,40.46050652,-3.676366952,442655.011,4479090.612,,Lunes,Tarde,15:45:00,17:15:00,http://run.gob.es/PuntoMOVILResiduos
Punto limpio móvil,"Avenida Doctor Arce, 1",Intersección con Plaza de la República Argentina,Avenida,Doctor Arce,P,1,Chamartín,5,40.44532013,-3.685109994,441900.658,4477410.635,https://goo.gl/maps/1Qj3Qw8avSfRLcHs6,Lunes,Mañana,08:45:00,10:15:00,http://run.gob.es/PuntoMOVILResiduos
Punto limpio móvil,"Calle Enrique Larreta, 14",,Calle,Enrique Larreta,P,14,Chamartín,5,40.46866386,-3.68659163,441795.159,4480002.772,https://goo.gl/maps/HXRVgZ6UmNkx87sA6,Lunes,Tarde,19:15:00,20:45:00,http://run.gob.es/PuntoMOVILResiduos
Punto limpio móvil,"Calle General López Pozas, 16",,Calle,General López Pozas,P,16,Chamartín,5,40.46533013,-3.685389994,441894.1537,4479631.934,https://goo.gl/maps/MDsNTa7zcuA3W8J6A,Jueves,Mañana,10:30:00,12:00:00,http://run.gob.es/PuntoMOVILResiduos
Punto limpio móvil,"Calle Mauricio Legendre, 5",,Calle,Mauricio Legendre,P,5,Chamartín,5,40.46923633,-3.686961477,441764.3,4480066.56,https://goo.gl/maps/HJZnka4S826Ypkoh9,Martes,Tarde,14:00:00,15:30:00,http://run.gob.es/PuntoMOVILResiduos
Punto limpio móvil,"Calle Padre Claret, 17",,Calle,Padre Claret,P,17,Chamartín,5,40.44748013,-3.664609994,443640.9353,4477637.111,https://goo.gl/maps/zm5pZMqoND8YpJzc6,Lunes,Mañana,12:15:00,13:45:00,http://run.gob.es/PuntoMOVILResiduos
Punto limpio móvil,"Avenida Pío XII, 46",,Avenida,Pío XII,P,46,Chamartín,5,40.46811013,-3.673659994,442890.9594,4479932.861,https://goo.gl/maps/kgCPtMtg1sFYoZWp7,Jueves,Mañana,08:45:00,10:15:00,http://run.gob.es/PuntoMOVILResiduos
Punto limpio móvil,"Calle Pradillo, 22",,Calle,Pradillo,P,22,Chamartín,5,40.44865013,-3.673579994,442881.2624,4477772.744,https://goo.gl/maps/TdgxMdnYj5LtQcym9,Lunes,Mañana,10:30:00,12:00:00,http://run.gob.es/PuntoMOVILResiduos
Punto limpio móvil,"Calle Príncipe de Vergara, 110",,Calle,Príncipe de Vergara,P,110,Chamartín,5,40.43933013,-3.678909994,442421.3294,4476741.685,https://goo.gl/maps/CUyFymftJAWRJEBw6,Lunes,Mañana,07:00:00,08:30:00,http://run.gob.es/PuntoMOVILResiduos
Punto limpio móvil,"Calle Príncipe de Vergara, 248",,Calle,Príncipe de Vergara,P,248,Chamartín,5,40.45366013,-3.677269994,442572.6179,4478331.248,https://goo.gl/maps/XAEZzrj7uW8NAQTbA,Jueves,Mañana,12:15:00,13:45:00,http://run.gob.es/PuntoMOVILResiduos
Punto limpio móvil,"Calle Príncipe de Vergara, 142",,Calle,Príncipe de Vergara,P,142,Chamartín,5,40.44464014,-3.678215136,442484.787,4477330.643,https://goo.gl/maps/VLszDMdcUpkXVXfB6,Jueves,Tarde,17:30:00,19:00:00,http://run.gob.es/PuntoMOVILResiduos
Punto limpio móvil,"Calle Santa Hortensia, 2",Intersección con López de Hoyos,Calle,Santa Hortensia,P,2,Chamartín,5,40.44595901,-3.670651482,443127.33,4477472.14,https://goo.gl/maps/FTt6LgGuEKGpvYej7,Jueves,Tarde,14:00:00,15:30:00,http://run.gob.es/PuntoMOVILResiduos
Punto limpio móvil,"Calle Santa María Magdalena, 18",,Calle,Santa María Magdalena,P,18,Chamartín,5,40.46299013,-3.670519994,443152.8359,4479362.512,https://goo.gl/maps/VjTL4cn53n6SprTR9,Jueves,Mañana,07:00:00,08:30:00,http://run.gob.es/PuntoMOVILResiduos
Punto limpio móvil,"Calle Santo Domingo de Silos, 7",Intersección con Avenida de Concha Espina,Calle,Santo Domingo de Silos,P,7,Chamartín,5,40.45178134,-3.686915621,441753.113,4478129.02,https://goo.gl/maps/329yiS2wP4eMHKem6,Jueves,Tarde,19:15:00,20:45:00,http://run.gob.es/PuntoMOVILResiduos
Punto limpio móvil,"Calle Aviador Zorita, 46",,Calle,Aviador Zorita,P,46,Tetuán,6,40.45114155,-3.69802484,440810.54,4478065.39,https://goo.gl/maps/ZWRwkmfrcKF3dhDu8,Miércoles,Tarde,17:30:00,19:00:00,http://run.gob.es/PuntoMOVILResiduos
Punto limpio móvil,"Calle Capitán Blanco Argibay, 134",,Calle,Capitán Blanco Argibay,P,134,Tetuán,6,40.46721013,-3.704279993,440294.3535,4479853.22,https://goo.gl/maps/GpurYy6W9ogy7LHv6,Miércoles,Tarde,14:00:00,15:30:00,http://run.gob.es/PuntoMOVILResiduos
Punto limpio móvil,"Avenida de Asturias, 6",En la vía de servicio,Avenida,de Asturias,P,6,Tetuán,6,40.46799013,-3.692879994,441261.4807,4479932.152,https://goo.gl/maps/J8GHvxY1LXDDuuGG6,Miércoles,Mañana,07:00:00,08:30:00,http://run.gob.es/PuntoMOVILResiduos
Punto limpio móvil,"Avenida de Asturias, 44",,Avenida,de Asturias,P,44,Tetuán,6,40.47081088,-3.696958818,440918.17,4480247.98,https://goo.gl/maps/LrzEmj2MRfsFx1Hv8,Lunes,Tarde,14:00:00,15:30:00,http://run.gob.es/PuntoMOVILResiduos
Punto limpio móvil,"Paseo de la Dirección, 328",,Paseo,de la Dirección,P,328,Tetuán,6,40.46998013,-3.704079993,440313.7611,4480160.556,https://goo.gl/maps/pBZ2ig9hV4K1LRCq7,Lunes,Mañana,10:30:00,12:00:00,http://run.gob.es/PuntoMOVILResiduos
Punto limpio móvil,"Plaza de la Remonta, 3",,Plaza,de la Remonta,P,3,Tetuán,6,40.46457158,-3.697613671,440857.184,4479555.852,https://goo.gl/maps/woUAm1UWQJKMXuMQ7,Lunes,Mañana,12:15:00,13:45:00,http://run.gob.es/PuntoMOVILResiduos
Punto limpio móvil,"Calle Francos Rodríguez, 57",,Calle,Francos Rodríguez,P,57,Tetuán,6,40.45680834,-3.709264743,439862.49,4478702,https://goo.gl/maps/Vkke1gYdTx7N9imy6,Lunes,Mañana,08:45:00,10:15:00,http://run.gob.es/PuntoMOVILResiduos
Punto limpio móvil,"Calle Hierbabuena, 13",,Calle,Hierbabuena,P,13,Tetuán,6,40.46008013,-3.701849994,440494.0676,4479060.146,https://goo.gl/maps/oQkmPSfa3ZLYw2J6A,Lunes,Tarde,15:45:00,17:15:00,http://run.gob.es/PuntoMOVILResiduos
Punto limpio móvil,"Calle Jerónima Llorente, 65",,Calle,Jerónima Llorente,P,65,Tetuán,6,40.45332738,-3.708129826,439955.62,4478314.84,https://goo.gl/maps/x2Dfd7EgPUEFSfjx5,Lunes,Mañana,07:00:00,08:30:00,http://run.gob.es/PuntoMOVILResiduos
Punto limpio móvil,"Calle Lope de Haro, 36",,Calle,Lope de Haro,P,36,Tetuán,6,40.45674114,-3.704672112,440251.836,4478691.423,https://goo.gl/maps/5o9But5bLg78pBco7,Miércoles,Mañana,10:30:00,12:00:00,http://run.gob.es/PuntoMOVILResiduos
Punto limpio móvil,"Calle Marqués de Viana, 70",,Calle,Marqués de Viana,P,70,Tetuán,6,40.46385013,-3.704259993,440293.0737,4479480.245,https://goo.gl/maps/EYsDF6zoDmar48GK6,Miércoles,Mañana,12:15:00,13:45:00,http://run.gob.es/PuntoMOVILResiduos
Punto limpio móvil,"Calle Orense, 9",,Calle,Orense,P,9,Tetuán,6,40.44776383,-3.69555288,441017.2,4477688.809,https://goo.gl/maps/mE6gCTKrSezmL7S39,Miércoles,Tarde,19:15:00,20:45:00,http://run.gob.es/PuntoMOVILResiduos
Punto limpio móvil,"Calle Orense, 2",Azca,Calle,Orense,P,2,Tetuán,6,40.44687328,-3.529895424,441035.06,4477589.81,https://goo.gl/maps/aQM8L8sGKNxz53pn7,Martes,Tarde,15:45:00,17:15:00,http://run.gob.es/PuntoMOVILResiduos
Punto limpio móvil,"Avenida Pablo Iglesias, 36",,Avenida,Pablo Iglesias,P,36,Tetuán,6,40.44831013,-3.708949993,439881.604,4477758.482,https://goo.gl/maps/En1XqhjyV6WHSfPM7,Miércoles,Tarde,15:45:00,17:15:00,http://run.gob.es/PuntoMOVILResiduos
Punto limpio móvil,"Calle Pedro Teixeira, 10",Intersección con Calle Poeta Joan Maragall,Calle,Pedro Teixeira,P,10,Tetuán,6,40.45493013,-3.692449994,441286.564,4478482.201,https://goo.gl/maps/ZskGvR22xJz9WVyK6,Lunes,Tarde,19:15:00,20:45:00,http://run.gob.es/PuntoMOVILResiduos
Punto limpio móvil,"Calle Poeta Joan Maragall, 45",Frente al número 54 (intersección con Calle de Rosario Pino),Calle,Poeta Joan Maragall,P,45,Tetuán,6,40.46230582,-3.691785867,441349.291,4479300.464,,Lunes,Tarde,17:30:00,19:00:00,http://run.gob.es/PuntoMOVILResiduos
Punto limpio móvil,"Calle Sor Ángela de la Cruz, 12",,Calle,Sor Ángela de la Cruz,P,12,Tetuán,6,40.45936013,-3.693459994,441204.7866,4478974.605,https://goo.gl/maps/PaqRwfAeAyeHiGUq6,Miércoles,Mañana,08:45:00,10:15:00,http://run.gob.es/PuntoMOVILResiduos
Punto limpio móvil,"Calle Agustín de Betancourt, 1",Ministerio,Calle,Agustín de Betancourt,P,1,Chamberí,7,40.4420748,-3.695064913,441053.61,4477057,https://goo.gl/maps/gTPX7h18xtVkKJ4t9,Martes,Tarde,17:30:00,19:00:00,http://run.gob.es/PuntoMOVILResiduos
Punto limpio móvil,"Calle Arapiles, 21",Intersección con Calle Vallehermoso,Calle,Arapiles,P,21,Chamberí,7,40.43279411,-3.708519655,439904.281,4476035.91,https://goo.gl/maps/yYuhUwvSxUwQqgpA6,Sábado,Tarde,17:30:00,19:00:00,http://run.gob.es/PuntoMOVILResiduos
Punto limpio móvil,"Calle Bravo Murillo, 41",,Calle,Bravo Murillo,P,41,Chamberí,7,40.43776198,-3.705244148,440186.51,4476585.12,https://goo.gl/maps/DNpDG4djng8eFkpR6,Sábado,Mañana,10:30:00,12:00:00,http://run.gob.es/PuntoMOVILResiduos
Punto limpio móvil,"Calle Bravo Murillo, 92",,Calle,Bravo Murillo,P,92,Chamberí,7,40.4458567,-3.703788592,440317.12,4477482.65,https://goo.gl/maps/RxFQttLrPUXvBjaN7,Sábado,Tarde,14:00:00,15:30:00,http://run.gob.es/PuntoMOVILResiduos
Punto limpio móvil,"Calle Bravo Murillo, 8",,Calle,Bravo Murillo,P,8,Chamberí,7,40.43439746,-3.704244286,440268.334,4476210.982,https://goo.gl/maps/pRZMvBTkacWjiXMj6,Sábado,Tarde,15:45:00,17:15:00,http://run.gob.es/PuntoMOVILResiduos
Punto limpio móvil,"Plaza Chamberí, 4",,Plaza,Chamberí,P,4,Chamberí,7,40.43306165,-3.697121262,440871.32,4476057.915,,Sábado,Mañana,07:00:00,08:30:00,http://run.gob.es/PuntoMOVILResiduos
Punto limpio móvil,"Calle Fernández de los Ríos, 62",,Calle,Fernández de los Ríos,P,62,Chamberí,7,40.43534781,-3.711832755,439625.55,4476321.63,https://goo.gl/maps/2gssruDWNQfPjkCN7,Sábado,Tarde,19:15:00,20:45:00,http://run.gob.es/PuntoMOVILResiduos
Punto limpio móvil,"Calle Fernando el Católico, 73",,Calle,Fernando el Católico,P,73,Chamberí,7,40.43439013,-3.716369993,439239.8566,4476218.438,https://goo.gl/maps/QwmX37QpcQ3hzDNL7,Martes,Mañana,07:00:00,08:30:00,http://run.gob.es/PuntoMOVILResiduos
Punto limpio móvil,"Calle Francisco de Rojas, 11",,Calle,Francisco de Rojas,P,11,Chamberí,7,40.43002013,-3.699999994,440624.4736,4475722.237,https://goo.gl/maps/XY7EWaJgyNS1kYcG9,Martes,Mañana,12:15:00,13:45:00,http://run.gob.es/PuntoMOVILResiduos
Punto limpio móvil,"Calle García de Paredes, 82",,Calle,García de Paredes,P,82,Chamberí,7,40.43655013,-3.693179994,441208.6531,4476442.505,https://goo.gl/maps/hoGQmbLiBZ37YuDL7,Martes,Tarde,14:00:00,15:30:00,http://run.gob.es/PuntoMOVILResiduos
Punto limpio móvil,"Avenida Islas Filipinas, 32",,Avenida,Islas Filipinas,P,32,Chamberí,7,40.44049013,-3.708339993,439926.3701,4476890.045,https://goo.gl/maps/YvY9TKc8b2peyA217,Martes,Tarde,19:15:00,20:45:00,http://run.gob.es/PuntoMOVILResiduos
Punto limpio móvil,"Calle Joaquín María López, 54",,Calle,Joaquín María López,P,54,Chamberí,7,40.43786013,-3.715549993,439312.5269,4476603.044,https://goo.gl/maps/1NU8pUU5NpyHvnQNA,Martes,Mañana,08:45:00,10:15:00,http://run.gob.es/PuntoMOVILResiduos
Punto limpio móvil,"Calle García Paredes, 32",,Calle,García Paredes,P,32,Chamberí,7,40.43695013,-3.699359994,440684.8501,4476491.036,https://goo.gl/maps/JTS7cLqkScVDocoM7,Martes,Mañana,10:30:00,12:00:00,http://run.gob.es/PuntoMOVILResiduos
Punto limpio móvil,"Paseo San Francisco de Sales, 33",,Paseo,San Francisco de Sales,P,33,Chamberí,7,40.44258001,-3.713539992,439487.2337,4477125.572,https://goo.gl/maps/yhzUB7rKY3nS5YUW8,Sábado,Mañana,12:15:00,13:45:00,http://run.gob.es/PuntoMOVILResiduos
Punto limpio móvil,"Plaza San Juan de la Cruz, 3",Intersección con Calle Fernández de la Hoz,Plaza,San Juan de la Cruz,P,3,Chamberí,7,40.44116013,-3.694359994,441112.5945,4476955.001,https://goo.gl/maps/iBXibmPyW2Zx1Vr16,Martes,Tarde,15:45:00,17:15:00,http://run.gob.es/PuntoMOVILResiduos
Punto limpio móvil,"Calle Santa Engracia, 126",,Calle,Santa Engracia,P,126,Chamberí,7,40.44157,-3.701391,440516.66,4477005.22,https://goo.gl/maps/KfeyB3VbFe8k7Nm56,Sábado,Mañana,08:45:00,10:15:00,http://run.gob.es/PuntoMOVILResiduos
Punto limpio móvil,Calle Vallehermoso,Frente al número 50,Calle,Vallehermoso,P,S/N,Chamberí,7,40.43569013,-3.708619993,439898.349,4476357.436,https://goo.gl/maps/dTetv2MT7uCq8QJj7,Martes,Tarde,17:30:00,19:00:00,http://run.gob.es/PuntoMOVILResiduos
Punto limpio móvil,"Calle Abetal, 3-5",Edificio BBVA,Calle,Abetal,P,3-5,Fuencarral-El Pardo,8,40.50072441,-3.662595179,443856.16,4483545.97,https://goo.gl/maps/eEkZgbFw329nBSUr8,Martes,Mañana,10:30:00,12:00:00,http://run.gob.es/PuntoMOVILResiduos
Punto limpio móvil,"Calle Afueras a Valverde, 23",,Calle,Afueras a Valverde,P,23,Fuencarral-El Pardo,8,40.49736629,-3.688979853,441617.573,4483190.341,https://goo.gl/maps/EjHsoHec1Y1Vx9iU6,Lunes,Tarde,19:15:00,20:45:00,http://run.gob.es/PuntoMOVILResiduos
Punto limpio móvil,"Avenida Monforte de Lemos, 1",Cuatro Torres,Avenida,Monforte de Lemos,P,1,Fuencarral-El Pardo,8,40.47503026,-3.687703698,441706.39,4480710.18,https://goo.gl/maps/cwX2kQp9noSSgY9LA,Martes,Mañana,12:15:00,13:45:00,http://run.gob.es/PuntoMOVILResiduos
Punto limpio móvil,"Calle Cándido Mateos, 17",,Calle,Cándido Mateos,P,17,Fuencarral-El Pardo,8,40.4738771,-3.718525244,439092.72,4480602.99,https://goo.gl/maps/hHUzSLwjwxThuozr9,Lunes,Mañana,12:15:00,13:45:00,http://run.gob.es/PuntoMOVILResiduos
Punto limpio móvil,"Avenida Cardenal Herrera Oria, 259",,Avenida,Cardenal Herrera Oria,P,259,Fuencarral-El Pardo,8,40.48015632,-3.722328509,438776.03,4481302.62,https://goo.gl/maps/wU8w81pX1rpjJgzn7,Lunes,Mañana,10:30:00,12:00:00,http://run.gob.es/PuntoMOVILResiduos
Punto limpio móvil,"Calle Cerro de Minguete, 9",,Calle,Cerro de Minguete,P,9,Fuencarral-El Pardo,8,40.48673425,-3.719531943,439019.02,4482030.84,https://goo.gl/maps/HwbxMYbhTEEanxpL9,Lunes,Mañana,08:45:00,10:15:00,http://run.gob.es/PuntoMOVILResiduos
Punto limpio móvil,"Avenida El Ferrol, 6",,Avenida,El Ferrol,P,6,Fuencarral-El Pardo,8,40.47454833,-3.703932363,440330.32,4480667.53,https://goo.gl/maps/q1pEuefmCPjr6WZr7,Viernes,Tarde,19:15:00,20:45:00,http://run.gob.es/PuntoMOVILResiduos
Punto limpio móvil,"Plaza El Pardo, 1",Intersección con Calle Carboneros,Plaza,El Pardo,P,1,Fuencarral-El Pardo,8,40.52027135,-3.777549085,434134.783,4485795.22,https://goo.gl/maps/pDXV8r7QCm8wqxPa8,Lunes,Mañana,07:00:00,08:30:00,http://run.gob.es/PuntoMOVILResiduos
Punto limpio móvil,"Calle Estella, 21",,Calle,Estella,P,21,Fuencarral-El Pardo,8,40.49712684,-3.674421941,442850.98,4483154.23,https://goo.gl/maps/kaVCXSw32NJSn7Vq7,Miércoles,Tarde,17:30:00,19:00:00,http://run.gob.es/PuntoMOVILResiduos
Punto limpio móvil,"Calle Federico Mompou, 4",Edificio Telecinco,Calle,Federico Mompou,P,4,Fuencarral-El Pardo,8,40.51081335,-3.678886058,442484.39,4484676.35,https://goo.gl/maps/PDUwtGnk6mEyYwpZ7,Martes,Mañana,07:00:00,08:30:00,http://run.gob.es/PuntoMOVILResiduos
Punto limpio móvil,"Calle Fermín Caballero, 49-51",,Calle,Fermín Caballero,P,49-51,Fuencarral-El Pardo,8,40.48426912,-3.706580057,440114.522,4481748.338,https://goo.gl/maps/P5aTSozWqHHJx6G58,Lunes,Tarde,14:00:00,15:30:00,http://run.gob.es/PuntoMOVILResiduos
Punto limpio móvil,"Calle Fresnedillas, 9",,Calle,Fresnedillas,P,9,Fuencarral-El Pardo,8,40.47787013,-3.742329993,437078.5713,4481062.919,https://goo.gl/maps/RHMkbeyQRDKkh8mj6,Miércoles,Mañana,07:00:00,08:30:00,http://run.gob.es/PuntoMOVILResiduos
Punto limpio móvil,Camino Ganapanes,Intersección con Calle La Bañeza,Camino,Ganapanes,P,S/N,Fuencarral-El Pardo,8,40.47571013,-3.715949993,439312.6687,4480804.684,https://goo.gl/maps/8SB31CesKGr6Q4m26,Miércoles,Mañana,10:30:00,12:00:00,http://run.gob.es/PuntoMOVILResiduos
Punto limpio móvil,"Calle Joaquín Lorenzo, 106",,Calle,Joaquín Lorenzo,P,106,Fuencarral-El Pardo,8,40.47572013,-3.735839993,437626.6923,4480819.66,https://goo.gl/maps/PU7jRJvzqPibn41T8,Viernes,Tarde,15:45:00,17:15:00,http://run.gob.es/PuntoMOVILResiduos
Punto limpio móvil,"Calle Julio Palacios, 10",,Calle,Julio Palacios,P,10,Fuencarral-El Pardo,8,40.41173813,-3.669933119,443159.445,4473673.17,https://goo.gl/maps/qJ6MEomomNzS55jy6,Lunes,Tarde,15:45:00,17:15:00,http://run.gob.es/PuntoMOVILResiduos
Punto limpio móvil,Calle Leopoldo Alas Clarín,"Acera de los pares, frente al número 41",Calle,Leopoldo Alas Clarín,P,S/N,Fuencarral-El Pardo,8,40.48099503,-3.733183387,437856.745,4481403.305,https://goo.gl/maps/8AXBEAAuHUTrvDzd8,Viernes,Tarde,14:00:00,15:30:00,http://run.gob.es/PuntoMOVILResiduos
Punto limpio móvil,"Avenida Monasterio de Silos, 85",,Avenida,Monasterio de Silos,P,85,Fuencarral-El Pardo,8,40.50978743,-3.691979444,441374.209,4484571.092,https://goo.gl/maps/J2oyRFZX48gY1LJy5,Miércoles,Tarde,15:45:00,17:15:00,http://run.gob.es/PuntoMOVILResiduos
Punto limpio móvil,Avenida Monasterio de Silos,"Acera de los pares, frente al número 23",Avenida,Monasterio de Silos,P,S/N,Fuencarral-El Pardo,8,40.5034714,-3.706355909,440150.584,4483879.66,https://goo.gl/maps/6bPkVgJVaaBm8dW39,Viernes,Mañana,10:30:00,12:00:00,http://run.gob.es/PuntoMOVILResiduos
Punto limpio móvil,"Calle Monforte de Lemos, 38",,Calle,Monforte de Lemos,P,38,Fuencarral-El Pardo,8,40.47842163,-3.709446437,439866.365,4481101.211,https://goo.gl/maps/MnzRecYE3jCPTmZH6,Viernes,Tarde,17:30:00,19:00:00,http://run.gob.es/PuntoMOVILResiduos
Punto limpio móvil,"Calle Nuestra Señora de Valverde, 17",,Calle,Nuestra Señora de Valverde,P,17,Fuencarral-El Pardo,8,40.49226604,-3.686740229,441802.948,4482622.729,https://goo.gl/maps/SHQ6V9WY4JCV7L2u6,Lunes,Tarde,17:30:00,19:00:00,http://run.gob.es/PuntoMOVILResiduos
Punto limpio móvil,"Calle Nuria, 59",Enfrente del centro comercial,Calle,Nuria,P,59,Fuencarral-El Pardo,8,40.49339779,-3.707919056,440009.165,4482762.539,https://goo.gl/maps/Co5pJDwFDk51Nhm58,Miércoles,Tarde,14:00:00,15:30:00,http://run.gob.es/PuntoMOVILResiduos
Punto limpio móvil,"Calle Pico Milano, 9",,Calle,Pico Milano,P,9,Fuencarral-El Pardo,8,40.48628013,-3.712759993,439592.5464,4481975.774,https://goo.gl/maps/zteXzNSTpjHooz9r7,Viernes,Mañana,12:15:00,13:45:00,http://run.gob.es/PuntoMOVILResiduos
Punto limpio móvil,"Calle Ribadavia, 27","Lateral, frente al supermercado",Calle,Ribadavia,P,27,Fuencarral-El Pardo,8,40.47290013,-3.708649993,439928.9523,4480487.778,https://goo.gl/maps/B6yenmZ2FuXj6iG39,Miércoles,Mañana,08:45:00,10:15:00,http://run.gob.es/PuntoMOVILResiduos
Punto limpio móvil,"Ronda de la Comunicación, 2",Edificio Telefónica,Ronda,Ronda de la Comunicación,P,2,Fuencarral-El Pardo,8,40.51389793,-3.664296067,443723.05,4485009.33,https://goo.gl/maps/dvz1VwLZ2Z7PPDu88,Martes,Mañana,08:45:00,10:15:00,http://run.gob.es/PuntoMOVILResiduos
Punto limpio móvil,Calle San Modesto,Intersección con Calle Isidro Fernández,Calle,San Modesto,P,S/N,Fuencarral-El Pardo,8,40.48422013,-3.685469994,441903.6556,4481728.788,https://goo.gl/maps/Y6aU3tL9V9prvhoP6,Viernes,Mañana,07:00:00,08:30:00,http://run.gob.es/PuntoMOVILResiduos
Punto limpio móvil,"Calle Sangenjo, 12",,Calle,Sangenjo,P,12,Fuencarral-El Pardo,8,40.48415013,-3.702489994,440461.0688,4481732.363,https://goo.gl/maps/xtmtxTq5ngjMGVhn9,Miércoles,Mañana,12:15:00,13:45:00,http://run.gob.es/PuntoMOVILResiduos
Punto limpio móvil,"Avenida Santo Domingo de la Calzada, 27",,Avenida,Santo Domingo de la Calzada,P,27,Fuencarral-El Pardo,8,40.50708261,-3.669166507,443304.7,4484255.94,https://goo.gl/maps/MHQgCctA7jSPE1Ra8,Miércoles,Tarde,19:15:00,20:45:00,http://run.gob.es/PuntoMOVILResiduos
Punto limpio móvil,Plaza Tres Olivos,Frente al número 6,Plaza,Tres Olivos,P,S/N,Fuencarral-El Pardo,8,40.50148,-3.69072,441473.27,4483648.27,,Viernes,Mañana,08:45:00,10:15:00,http://run.gob.es/PuntoMOVILResiduos
Punto limpio móvil,"Calle Antonio Machado, 12",IDM Ciudad de los Poetas,Calle,Antonio Machado,P,12,Moncloa-Aravaca,9,40.46598087,-3.71921181,439027.38,4479726.978,https://goo.gl/maps/swEGHLY6GtP8aS3q6,Sábado,Mañana,08:45:00,10:15:00,http://run.gob.es/PuntoMOVILResiduos
Punto limpio móvil,Calle Arriaza,Frente al número 10 (intersección con Calle Ilustración),Calle,Arriaza,P,S/N,Moncloa-Aravaca,9,40.42125013,-3.716109993,439250.0868,4474759.721,https://goo.gl/maps/R4UavaixG9ZZietb8,Sábado,Tarde,14:00:00,15:30:00,http://run.gob.es/PuntoMOVILResiduos
Punto limpio móvil,"Avenida Complutense, S/N",Frente al Servicio de Informática,Avenida,Complutense,P,S/N,Moncloa-Aravaca,9,40.45126013,-3.727629993,438300.2394,4478098.817,https://goo.gl/maps/sjmS8Ux8mMc7uiPn6,Miércoles,Mañana,10:30:00,12:00:00,http://run.gob.es/PuntoMOVILResiduos
Punto limpio móvil,"Paseo Florida, 12",Farola 13,Paseo,Florida,P,12,Moncloa-Aravaca,9,40.42284446,-3.722753495,438687.94,4474941.28,https://goo.gl/maps/2qr12ro9YretEbEz5,Sábado,Tarde,19:15:00,20:45:00,http://run.gob.es/PuntoMOVILResiduos
Punto limpio móvil,"Calle Francos Rodríguez, 102",,Calle,Francos Rodríguez,P,102,Moncloa-Aravaca,9,40.45790876,-3.712783422,439565.13,4478826.55,https://goo.gl/maps/yNaV3LSUrmXBLetu9,Miércoles,Tarde,14:00:00,15:30:00,http://run.gob.es/PuntoMOVILResiduos
Punto limpio móvil,Calle Golondrina,"Frente a la Avenida del Talgo, 234",Calle,Golondrina,P,S/N,Moncloa-Aravaca,9,40.44751121,-3.785085494,433424.524,4477724.415,https://goo.gl/maps/ZbLjyuXygtm5KW2w5,Miércoles,Tarde,17:30:00,19:00:00,http://run.gob.es/PuntoMOVILResiduos
Punto limpio móvil,"Calle Marqués de Urquijo, 2",,Calle,Marqués de Urquijo,P,2,Moncloa-Aravaca,9,40.43060674,-3.716657855,439212.034,4475798.68,https://goo.gl/maps/VsRMfbxQJY5rEhdY8,Miércoles,Mañana,12:15:00,13:45:00,http://run.gob.es/PuntoMOVILResiduos
Punto limpio móvil,"Avenida Osa Mayor, 23",,Avenida,Osa Mayor,P,23,Moncloa-Aravaca,9,40.4596153,-3.778909594,433960.099,4479063.339,https://goo.gl/maps/djeCtvaGo5BHEsA38,Sábado,Mañana,07:00:00,08:30:00,http://run.gob.es/PuntoMOVILResiduos
Punto limpio móvil,"Avenida Pablo Iglesias, 55",,Avenida,Pablo Iglesias,P,55,Moncloa-Aravaca,9,40.45058013,-3.710829993,439724.2084,4478011.734,https://goo.gl/maps/K83K4dZergc5aFHC9,Sábado,Mañana,10:30:00,12:00:00,http://run.gob.es/PuntoMOVILResiduos
Punto limpio móvil,"Avenida Principal, 4-6",Acceso Pabellón Cubo de la Pipa-Casa de Campo,Avenida,Principal,P,4-6,Moncloa-Aravaca,9,40.41247955,-3.739087164,437292.7,4473802.24,https://goo.gl/maps/qGZn4nc1gcMLhGeB6,Lunes,Tarde,12:15:00,13:45:00,http://run.gob.es/PuntoMOVILResiduos
Punto limpio móvil,"Calle Ribera de Manzanares, 125",Intersección con Calle Acantilado,Calle,Ribera de Manzanares,P,125,Moncloa-Aravaca,9,40.42943013,-3.733359993,437794.2377,4475679.703,https://goo.gl/maps/FiJriHjGhtKaAHwQ7,Sábado,Mañana,12:15:00,13:45:00,http://run.gob.es/PuntoMOVILResiduos
Punto limpio móvil,"Calle San Restituto, 24",,Calle,San Restituto,P,24,Moncloa-Aravaca,9,40.46505013,-3.711819993,439653.2082,4479618.586,https://goo.gl/maps/1q5XjAwh5fEkv2P59,Miércoles,Tarde,15:45:00,17:15:00,http://run.gob.es/PuntoMOVILResiduos
Punto limpio móvil,"Avenida Valdemarín, 71A",Intersección con Calle Cisne,Avenida,Valdemarín,P,71A,Moncloa-Aravaca,9,40.47011006,-3.778391577,434014.291,4480227.878,https://goo.gl/maps/qDnCziFenr2BESma8,Miércoles,Mañana,08:45:00,10:15:00,http://run.gob.es/PuntoMOVILResiduos
Punto limpio móvil,"Avenida Victoria, 77",,Avenida,Victoria,P,77,Moncloa-Aravaca,9,40.47396543,-3.834073426,429298.029,4480698.942,https://goo.gl/maps/Q3sUbMAuHgrjxkUe8,Miércoles,Mañana,07:00:00,08:30:00,http://run.gob.es/PuntoMOVILResiduos
Punto limpio móvil,Calle Virgen de los Rosales,Acera de enfrente al número 88,Calle,Virgen de los Rosales,P,S/N,Moncloa-Aravaca,9,40.45358,-3.779036127,433943.46,4478393.511,https://goo.gl/maps/4T8hZagbkP8LNrby6,Miércoles,Tarde,19:15:00,20:45:00,http://run.gob.es/PuntoMOVILResiduos
Punto limpio móvil,Calle Alhambra,Acera de enfrente al número 30,Calle,Alhambra,P,S/N,Latina,10,40.40088914,-3.744586083,436815.306,4472519.626,https://goo.gl/maps/4Z7j7gBa3U3uAmzRA,Miércoles,Tarde,15:45:00,17:15:00,http://run.gob.es/PuntoMOVILResiduos
Punto limpio móvil,"Avenida Apóstoles, 13",Intersección con Paseo de los Olivos,Avenida,Apóstoles,P,13,Latina,10,40.40567013,-3.739699993,437234.3785,4473046.832,https://goo.gl/maps/nnvCSsBaAsPBDHaT6,Viernes,Tarde,15:45:00,17:15:00,http://run.gob.es/PuntoMOVILResiduos
Punto limpio móvil,"Calle Camarena, 235",Frente al número 296,Calle,Camarena,P,235,Latina,10,40.38631089,-3.757199396,435731.086,4470910.542,https://goo.gl/maps/zF3hCoRpo6zt13mG8,Lunes,Tarde,15:45:00,17:15:00,http://run.gob.es/PuntoMOVILResiduos
Punto limpio móvil,"Calle Caramuel, 6",Entre los números 6 y 8,Calle,Caramuel,P,6,Latina,10,40.41311972,-3.727129825,438307.805,4473864.883,https://goo.gl/maps/3WLcU5QcGYJaPSer9,Miércoles,Tarde,19:15:00,20:45:00,http://run.gob.es/PuntoMOVILResiduos
Punto limpio móvil,"Calle Cardaño, 8",En la Plaza Patricio Martínez,Calle,Cardaño,P,8,Latina,10,40.39655217,-3.770445426,434616.696,4472057.03,https://goo.gl/maps/CScxAfagkpx9Uhg8A,Miércoles,Mañana,12:15:00,13:45:00,http://run.gob.es/PuntoMOVILResiduos
Punto limpio móvil,Glorieta de los Cármenes,Entre las salidas de Calle Gallur y Calle Alhambra,Glorieta,de los Cármenes,P,S/N,Latina,10,40.39569796,-3.743411287,436910.153,4471942.569,https://goo.gl/maps/eYZwk6gnkUH3nEJy9,Lunes,Mañana,12:15:00,13:45:00,http://run.gob.es/PuntoMOVILResiduos
Punto limpio móvil,"Paseo de los Jesuitas, 42",,Paseo,de los Jesuitas,P,42,Latina,10,40.40870061,-3.734961308,437639.27,4473379.86,https://goo.gl/maps/JZHkdVSEUhq72zhP9,Lunes,Mañana,10:30:00,12:00:00,http://run.gob.es/PuntoMOVILResiduos
Punto limpio móvil,"Calle Duquesa de Parcent, 96",,Calle,Duquesa de Parcent,P,96,Latina,10,40.39591401,-3.750286074,436326.92,4471971.48,https://goo.gl/maps/9UMwzcTEkwRi1jZX9,Viernes,Tarde,14:00:00,15:30:00,http://run.gob.es/PuntoMOVILResiduos
Punto limpio móvil,"Paseo Ermita del Santo, 39",,Paseo,Ermita del Santo,P,39,Latina,10,40.40655438,-3.724384145,438534.787,4473134.22,https://goo.gl/maps/fjajssiEocvMbGCCA,Viernes,Tarde,19:15:00,20:45:00,http://run.gob.es/PuntoMOVILResiduos
Punto limpio móvil,"Calle Fuente del Tiro, 17",,Calle,Fuente del Tiro,P,17,Latina,10,40.38361228,-3.780577319,433744.171,4470628.253,https://goo.gl/maps/8hHg5ugsUeDAj4dG9,Lunes,Tarde,17:30:00,19:00:00,http://run.gob.es/PuntoMOVILResiduos
Punto limpio móvil,"Calle General Millán Astray, 20",,Calle,General Millán Astray,P,20,Latina,10,40.37841904,-3.767240468,434871.22,4470041.9,https://goo.gl/maps/vq5NXV3GXeAQsppw6,Viernes,Mañana,08:45:00,10:15:00,http://run.gob.es/PuntoMOVILResiduos
Punto limpio móvil,Calle Guareña,Al lado del Auditorio Paco de Lucía,Calle,Guareña,P,S/N,Latina,10,40.38522206,-3.764791741,435085.618,4470795.229,https://goo.gl/maps/cVnQ6RfT54B1gxqh9,Miércoles,Mañana,08:45:00,10:15:00,http://run.gob.es/PuntoMOVILResiduos
Punto limpio móvil,"Calle Higueras, 45",,Calle,Higueras,P,45,Latina,10,40.40532577,-3.745103375,436775.56,4473012.46,https://goo.gl/maps/k4qw4g8LmoPKJ9p46,Miércoles,Tarde,17:30:00,19:00:00,http://run.gob.es/PuntoMOVILResiduos
Punto limpio móvil,"Calle Illescas, 117",,Calle,Illescas,P,117,Latina,10,40.39350783,-3.761277537,435391.82,4471712.37,https://goo.gl/maps/zyAKW2Z14PbgeeED8,Miércoles,Mañana,10:30:00,12:00:00,http://run.gob.es/PuntoMOVILResiduos
Punto limpio móvil,"Avenida Arqueros, 5",,Avenida,Arqueros,P,5,Latina,10,40.38175001,-3.792669991,432715.8749,4470430.673,,Lunes,Mañana,07:00:00,08:30:00,http://run.gob.es/PuntoMOVILResiduos
Punto limpio móvil,"Calle Ocaña, 149",,Calle,Ocaña,P,149,Latina,10,40.38640227,-3.753163133,436073.762,4470917.76,https://goo.gl/maps/qThYywVcGTG6ALD59,Lunes,Tarde,14:00:00,15:30:00,http://run.gob.es/PuntoMOVILResiduos
Punto limpio móvil,"Calle Oliva de Plasencia, 1",,Calle,Oliva de Plasencia,P,1,Latina,10,40.37854039,-3.779432297,433836.4,4470064.42,https://goo.gl/maps/wd193DJTgaH4xuGp6,Lunes,Tarde,19:15:00,20:45:00,http://run.gob.es/PuntoMOVILResiduos
Punto limpio móvil,Calle Pablo Casals,Frente al número 10,Calle,Pablo Casals,P,S/N,Latina,10,40.41020013,-3.724709993,438510.4562,4473539.123,https://goo.gl/maps/YtVC2ipmDwY6887f7,Viernes,Tarde,17:30:00,19:00:00,http://run.gob.es/PuntoMOVILResiduos
Punto limpio móvil,"Avenida Padre Piquer, 13",Junto a Correos,Avenida,Padre Piquer,P,13,Latina,10,40.39407013,-3.767689993,434848.1438,4471779.49,https://goo.gl/maps/KLofpLtgpZSQLDLM6,Viernes,Mañana,10:30:00,12:00:00,http://run.gob.es/PuntoMOVILResiduos
Punto limpio móvil,"Calle Rafael Finat, 103",,Calle,Rafael Finat,P,103,Latina,10,40.37583416,-3.772503573,434421.94,4469758.87,https://goo.gl/maps/1PWbKTdFrUvupVGe7,Viernes,Mañana,07:00:00,08:30:00,http://run.gob.es/PuntoMOVILResiduos
Punto limpio móvil,"Calle Tembleque, 64",,Calle,Tembleque,P,64,Latina,10,40.39518922,-3.760300561,435476.34,4471898.29,https://goo.gl/maps/NWuV6wULW3q8KZyw9,Miércoles,Tarde,14:00:00,15:30:00,http://run.gob.es/PuntoMOVILResiduos
Punto limpio móvil,"Calle Trompas, 15",,Calle,Trompas,P,15,Latina,10,40.37142604,-3.7656181,435002.22,4469264.49,https://goo.gl/maps/FXW9W35vgK2RGwLN7,Miércoles,Mañana,07:00:00,08:30:00,http://run.gob.es/PuntoMOVILResiduos
Punto limpio móvil,"Calle Villasandino, 35",,Calle,Villasandino,P,35,Latina,10,40.40570434,-3.752934046,436111.454,4473060.112,https://goo.gl/maps/boeBbZGWPyDW8DYeA,Lunes,Mañana,08:45:00,10:15:00,http://run.gob.es/PuntoMOVILResiduos
Punto limpio móvil,"Calle Yébenes, 110",Frente al número 217,Calle,Yébenes,P,110,Latina,10,40.39213013,-3.751569993,436214.3886,4471552.397,https://goo.gl/maps/NAwNCsYNHpqS5wow9,Viernes,Mañana,12:15:00,13:45:00,http://run.gob.es/PuntoMOVILResiduos
Punto limpio móvil,"Avenida Abrantes, 40",Frente a la Calle Faro,Avenida,Abrantes,P,40,Carabanchel,11,40.38173013,-3.727039993,438286.7719,4470380.597,https://goo.gl/maps/cr1yigPxMXfzLm5D7,Viernes,Mañana,08:45:00,10:15:00,http://run.gob.es/PuntoMOVILResiduos
Punto limpio móvil,"Calle Alférez Juan Usera, 36",,Calle,Alférez Juan Usera,P,36,Carabanchel,11,40.39546013,-3.731189993,437947.108,4471907.52,https://goo.gl/maps/P4zCAJ7YNNUQSrpu8,Viernes,Tarde,15:45:00,17:15:00,http://run.gob.es/PuntoMOVILResiduos
Punto limpio móvil,"Calle Antonio Leyva, 77",Frente al Instituto Calderón de la Barca,Calle,Antonio Leyva,P,77,Carabanchel,11,40.387688,-3.716653,439173.82,4471034.73,https://goo.gl/maps/ep6o2xYgqqNunPa68,Lunes,Mañana,10:30:00,12:00:00,http://run.gob.es/PuntoMOVILResiduos
Punto limpio móvil,"Calle Antonio López, 88",,Calle,Antonio López,P,88,Carabanchel,11,40.39382375,-3.707727615,439936.82,4471709.68,https://goo.gl/maps/DdtP7FfoYWhgdCU5A,Miércoles,Mañana,12:15:00,13:45:00,http://run.gob.es/PuntoMOVILResiduos
Punto limpio móvil,"Calle Antonio López, 9",,Calle,Antonio López,P,9,Carabanchel,11,40.39707843,-3.714113341,439397.792,4472075.304,https://goo.gl/maps/8QcEoffmVE37iJC28,Viernes,Tarde,14:00:00,15:30:00,http://run.gob.es/PuntoMOVILResiduos
Punto limpio móvil,Calle Carlos Daban,Frente al número 28,Calle,Carlos Daban,P,S/N,Carabanchel,11,40.39751151,-3.731708393,437904.998,4472135.586,https://goo.gl/maps/EKN2141PE2HyNwRk8,Lunes,Mañana,12:15:00,13:45:00,http://run.gob.es/PuntoMOVILResiduos
Punto limpio móvil,Calle Clara Campoamor,Frente al número 75,Calle,Clara Campoamor,P,S/N,Carabanchel,11,40.37957467,-3.732811665,437794.869,4470145.388,https://goo.gl/maps/2xHfnof19hBQbcQ38,Lunes,Tarde,17:30:00,19:00:00,http://run.gob.es/PuntoMOVILResiduos
Punto limpio móvil,Plaza de Coímbra,Junto al semáforo,Plaza,de Coímbra,P,S/N,Carabanchel,11,40.38316051,-3.723731631,438568.897,4470537.065,https://goo.gl/maps/2yQthkfyW4jNLf5cA,Miércoles,Tarde,15:45:00,17:15:00,http://run.gob.es/PuntoMOVILResiduos
Punto limpio móvil,"Plaza de la Parroquia, 16",,Plaza,de la Parroquia,P,16,Carabanchel,11,40.37993013,-3.741849993,437027.9695,4470191.24,https://goo.gl/maps/1SQ24VLmpq3JPngX9,Viernes,Tarde,17:30:00,19:00:00,http://run.gob.es/PuntoMOVILResiduos
Punto limpio móvil,Plaza de los Navarros,Entre Calle Albares de la Ribera y Calle Alberca de Záncara,Plaza,de los Navarros,P,S/N,Carabanchel,11,40.37425336,-3.742139687,436998.091,4469561.331,https://goo.gl/maps/e7uFpK5WJG7YUq7d7,Miércoles,Mañana,08:45:00,10:15:00,http://run.gob.es/PuntoMOVILResiduos
Punto limpio móvil,"Calle Eugenia de Montijo, 76",,Calle,Eugenia de Montijo,P,76,Carabanchel,11,40.37913785,-3.747337904,436561.38,4470107.22,https://goo.gl/maps/a1FvzTxuQtbWFQA5A,Miércoles,Tarde,17:30:00,19:00:00,http://run.gob.es/PuntoMOVILResiduos
Punto limpio móvil,"Calle Eugenia de Montijo, 99",,Calle,Eugenia de Montijo,P,99,Carabanchel,11,40.37438754,-3.750942663,436250.906,4469582.532,https://goo.gl/maps/VrffFifxmxnUJKbLA,Viernes,Mañana,07:00:00,08:30:00,http://run.gob.es/PuntoMOVILResiduos
Punto limpio móvil,"Calle Joaquín Turina, 62",,Calle,Joaquín Turina,P,62,Carabanchel,11,40.37223546,-3.758420175,435614.07,4469349.07,https://goo.gl/maps/MQgFZG5JQQwtUQ8U6,Miércoles,Mañana,07:00:00,08:30:00,http://run.gob.es/PuntoMOVILResiduos
Punto limpio móvil,"Calle Laguna, 121",,Calle,Laguna,P,121,Carabanchel,11,40.38831619,-3.741772099,437042.39,4471122.03,https://goo.gl/maps/GdPzhgVHgSJxAj1M7,Lunes,Tarde,14:00:00,15:30:00,http://run.gob.es/PuntoMOVILResiduos
Punto limpio móvil,"Calle Mazarambroz, 4",Intersección con Calle Cazalegas y Calle Carranque,Calle,Mazarambroz,P,4,Carabanchel,11,40.37511067,-3.727948897,438203.573,4469646.479,https://goo.gl/maps/8gQCsQ5JNY5Sijqd8,Lunes,Tarde,19:15:00,20:45:00,http://run.gob.es/PuntoMOVILResiduos
Punto limpio móvil,"Calle Mutual, 2",Intersección con Avenida de la Peseta,Calle,Mutual,P,2,Carabanchel,11,40.36346589,-3.747378466,436543.238,4468367.679,https://goo.gl/maps/STp3TBUpv8HfSDPC9,Miércoles,Tarde,19:15:00,20:45:00,http://run.gob.es/PuntoMOVILResiduos
Punto limpio móvil,"Avenida Nuestra Señora de Fátima, 15",,Avenida,Nuestra Señora de Fátima,P,15,Carabanchel,11,40.38586625,-3.744391677,436817.763,4470851.957,https://goo.gl/maps/E5RZ3VWbF8wATiTj8,Lunes,Mañana,08:45:00,10:15:00,http://run.gob.es/PuntoMOVILResiduos
Punto limpio móvil,"Avenida Oporto, 33",,Avenida,Oporto,P,33,Carabanchel,11,40.38542445,-3.724508546,438505.01,4470788.9,https://goo.gl/maps/gDAUiAs4NVFG1ujt6,Lunes,Tarde,15:45:00,17:15:00,http://run.gob.es/PuntoMOVILResiduos
Punto limpio móvil,"Avenida Oporto, 96",,Avenida,Oporto,P,96,Carabanchel,11,40.38718499,-3.729555278,438078.261,4470987.841,https://goo.gl/maps/Anb7EYcMyJdihS5M9,Viernes,Mañana,12:15:00,13:45:00,http://run.gob.es/PuntoMOVILResiduos
Punto limpio móvil,"Calle Pinar de San José, 13",,Calle,Pinar de San José,P,13,Carabanchel,11,40.36405652,-3.76208289,435295.3,4468443.89,https://goo.gl/maps/6tASMF1dacAHn9Mw9,Lunes,Mañana,07:00:00,08:30:00,http://run.gob.es/PuntoMOVILResiduos
Punto limpio móvil,"Avenida Plaza de Toros, 3",,Avenida,Plaza de Toros,P,3,Carabanchel,11,40.38554646,-3.73753348,437399.58,4470811.583,https://goo.gl/maps/6Hgs7bbVLg6HoTAV6,Viernes,Mañana,10:30:00,12:00:00,http://run.gob.es/PuntoMOVILResiduos
Punto limpio móvil,Calle San Braulio,"En la acera del Mercado Municipal de San Isidro, frente al número 3",Calle,San Braulio,P,S/N,Carabanchel,11,40.39156704,-3.724995152,438469.298,4471471.061,https://goo.gl/maps/dVV66VnTuVQka9x7A,Miércoles,Tarde,14:00:00,15:30:00,http://run.gob.es/PuntoMOVILResiduos
Punto limpio móvil,"Calle Toboso, 134",,Calle,Toboso,P,134,Carabanchel,11,40.39348348,-3.736663419,437480.77,4471691.97,https://goo.gl/maps/TBiyLyyBG1X28DDy5,Miércoles,Mañana,10:30:00,12:00:00,http://run.gob.es/PuntoMOVILResiduos
Punto limpio móvil,"Calle Doctor Sanchís Banús, 3",,Calle,Doctor Sanchís Banús,P,3,Usera,12,40.38723611,-3.707373892,439960.9897,4470978.217,,Viernes,Mañana,12:15:00,13:45:00,http://run.gob.es/PuntoMOVILResiduos
Punto limpio móvil,"Calle Antonio López, 246-248",,Calle,Antonio López,P,246-248,Usera,12,40.38190628,-3.695938392,440926.94,4470378.91,https://goo.gl/maps/SL5CAWcScMmUJyW89,Viernes,Mañana,10:30:00,12:00:00,http://run.gob.es/PuntoMOVILResiduos
Punto limpio móvil,"Calle Coníferas, 10",,Calle,Coníferas,P,10,Usera,12,40.36694595,-3.694602542,441027.29,4468717.44,https://goo.gl/maps/tdSqvXeTNfGiQmCA9,Viernes,Tarde,19:15:00,20:45:00,http://run.gob.es/PuntoMOVILResiduos
Punto limpio móvil,Calle del Santuario,Intersección con Calle Hijas de Jesús y Calle San Antonio de Padua,Calle,del Santuario,P,S/N,Usera,12,40.38496415,-3.700148519,440572.258,4470721.151,https://goo.gl/maps/EwC7ju6c4vAXYHfF7,Martes,Tarde,14:00:00,15:30:00,http://run.gob.es/PuntoMOVILResiduos
Punto limpio móvil,"Calle Dolores Barranco, 50",,Calle,Dolores Barranco,P,50,Usera,12,40.38333013,-3.706829993,440003.6883,4470544.288,https://goo.gl/maps/CwCwELdAfAjr6ubeA,Martes,Tarde,15:45:00,17:15:00,http://run.gob.es/PuntoMOVILResiduos
Punto limpio móvil,"Calle Estafeta, 20",Frente al número 7,Calle,Estafeta,P,20,Usera,12,40.37334237,-3.692472821,441213.666,4469426.016,https://goo.gl/maps/fQ7LQucSmUepap1RA,Viernes,Tarde,17:30:00,19:00:00,http://run.gob.es/PuntoMOVILResiduos
Punto limpio móvil,"Calle Gran Avenida, 31",,Calle,Gran Avenida,P,31,Usera,12,40.36964168,-3.706191846,440045.723,4469024.453,https://goo.gl/maps/Pg2WPzPUJZDgbEju9,Viernes,Mañana,07:00:00,08:30:00,http://run.gob.es/PuntoMOVILResiduos
Punto limpio móvil,"Calle Guetaria, 47",Intersección con Calle Villabona,Calle,Guetaria,P,47,Usera,12,40.36914712,-3.715520337,439253.302,4468975.923,https://goo.gl/maps/qicMZKENR9jovRMo8,Martes,Mañana,07:00:00,08:30:00,http://run.gob.es/PuntoMOVILResiduos
Punto limpio móvil,"Calle Manuel Noya, 15",,Calle,Manuel Noya,P,15,Usera,12,40.38677762,-3.712415205,439532.69,4470930.76,https://goo.gl/maps/ZPi1Rd2c8i7d9yJi8,Martes,Tarde,19:15:00,20:45:00,http://run.gob.es/PuntoMOVILResiduos
Punto limpio móvil,"Calle Mariblanca, 18-20",Entre los números 18 y 20,Calle,Mariblanca,P,18-20,Usera,12,40.39157013,-3.706189993,440065.3173,4471458.486,https://goo.gl/maps/tG2mmKkocwwq3XPP9,Viernes,Tarde,14:00:00,15:30:00,http://run.gob.es/PuntoMOVILResiduos
Punto limpio móvil,"Avenida Orcasur, 44","Intersección con Calle Arenas del Rey, junto al centro de salud",Avenida,Orcasur,P,44,Usera,12,40.36555568,-3.700722153,440506.5,4468567.22,https://goo.gl/maps/nBixGiu8fazBXnrj8,Martes,Mañana,10:30:00,12:00:00,http://run.gob.es/PuntoMOVILResiduos
Punto limpio móvil,"Calle Parque de la Paloma, 32",,Calle,Parque de la Paloma,P,32,Usera,12,40.37860534,-3.714641117,439336.43,4470025.17,https://goo.gl/maps/FvEnHz4Cx2Eoduc9A,Viernes,Mañana,08:45:00,10:15:00,http://run.gob.es/PuntoMOVILResiduos
Punto limpio móvil,"Calle Periana, 6",,Calle,Periana,P,6,Usera,12,40.36838731,-3.688532197,441543.92,4468873.4,https://goo.gl/maps/LV5hwYb5SP9zWv8G9,Martes,Mañana,12:15:00,13:45:00,http://run.gob.es/PuntoMOVILResiduos
Punto limpio móvil,"Avenida Rafaela Ybarra, 20",,Avenida,Rafaela Ybarra,P,20,Usera,12,40.38196732,-3.711373636,439616.8,4470396.11,https://goo.gl/maps/HudLeF4jHDvwHnB57,Martes,Tarde,17:30:00,19:00:00,http://run.gob.es/PuntoMOVILResiduos
Punto limpio móvil,"Calle Simca, 4",Intersección con Calle Dodge,Calle,Simca,P,4,Usera,12,40.36637303,-3.710087199,439712.1,4468664.285,https://goo.gl/maps/cqxUgtH5DsLeH6CY7,Martes,Mañana,08:45:00,10:15:00,http://run.gob.es/PuntoMOVILResiduos
Punto limpio móvil,"Calle Virgen de las Cruces, 2-4",,Calle,Virgen de las Cruces,P,2-4,Usera,12,40.37825013,-3.692449994,441219.869,4469970.756,https://goo.gl/maps/MFBQtuJqnEjwuSuX9,Viernes,Tarde,15:45:00,17:15:00,http://run.gob.es/PuntoMOVILResiduos
Punto limpio móvil,"Calle Andaluces, 9",,Calle,Andaluces,P,9,Puente de Vallecas,13,40.38992802,-3.636609339,445969.39,4471231.37,https://goo.gl/maps/WKH6GEve92HvvQXp9,Martes,Mañana,12:15:00,13:45:00,http://run.gob.es/PuntoMOVILResiduos
Punto limpio móvil,Calle Arroyo del Olivar,"Intersección con Calle Martínez de la Riva, 18",Calle,Arroyo del Olivar,P,S/N,Puente de Vallecas,13,40.39408233,-3.666178413,443463.246,4471710.983,https://goo.gl/maps/qRC1xDXJ8rQZfYPm7,Jueves,Tarde,15:45:00,17:15:00,http://run.gob.es/PuntoMOVILResiduos
Punto limpio móvil,"Calle Cooperativa Eléctrica, 18",,Calle,Cooperativa Eléctrica,P,18,Puente de Vallecas,13,40.37459162,-3.660513091,443927.89,4469543.93,https://goo.gl/maps/LQfLvZP7erKsPYuc9,Martes,Mañana,07:00:00,08:30:00,http://run.gob.es/PuntoMOVILResiduos
Punto limpio móvil,"Avenida de Buenos Aires, 25",,Avenida,de Buenos Aires,P,25,Puente de Vallecas,13,40.3875944,-3.652783229,444594.75,4470982.35,https://goo.gl/maps/qpS6uJqKboieCcpV8,Martes,Tarde,19:15:00,20:45:00,http://run.gob.es/PuntoMOVILResiduos
Punto limpio móvil,"Avenida de Buenos Aires, 99",,Avenida,de Buenos Aires,P,99,Puente de Vallecas,13,40.37947003,-3.65273719,444592.001,4470080.526,https://goo.gl/maps/NGS9HFjv6kVJKw9f6,Jueves,Mañana,12:15:00,13:45:00,http://run.gob.es/PuntoMOVILResiduos
Punto limpio móvil,"Calle Diligencia, 22","Intersección con Calle la Violetera, frente al Vivero de Empresas",Calle,Diligencia,P,22,Puente de Vallecas,13,40.38313013,-3.656179994,444302.7689,4470488.955,https://goo.gl/maps/Ny9a873aJiN3Lmx68,Martes,Mañana,08:45:00,10:15:00,http://run.gob.es/PuntoMOVILResiduos
Punto limpio móvil,"Calle Humanes, 27",,Calle,Humanes,P,27,Puente de Vallecas,13,40.39524315,-3.645605693,445210.15,4471826.88,https://goo.gl/maps/gou5tYyJ9Dqp9F8b6,Martes,Tarde,15:45:00,17:15:00,http://run.gob.es/PuntoMOVILResiduos
Punto limpio móvil,"Calle Javier de Miguel, 40",,Calle,Javier de Miguel,P,40,Puente de Vallecas,13,40.38756002,-3.660630692,443928.66,4470983.48,https://goo.gl/maps/RQ8qz7m4wm7MZiKd8,Jueves,Tarde,17:30:00,19:00:00,http://run.gob.es/PuntoMOVILResiduos
Punto limpio móvil,"Calle La Mancha, 2",,Calle,La Mancha,P,2,Puente de Vallecas,13,40.38148977,-3.669341034,443184.26,4470315.25,https://goo.gl/maps/ZSmm3NKPZmJ6qzwLA,Sábado,Tarde,14:00:00,15:30:00,http://run.gob.es/PuntoMOVILResiduos
Punto limpio móvil,"Calle Marismas, 24",,Calle,Marismas,P,24,Puente de Vallecas,13,40.40144013,-3.653579994,444538.4853,4472519.711,https://goo.gl/maps/9BR4fwh4nUkGrSwj9,Martes,Tarde,14:00:00,15:30:00,http://run.gob.es/PuntoMOVILResiduos
Punto limpio móvil,"Calle Monleón, 2",,Calle,Monleón,P,2,Puente de Vallecas,13,40.39240479,-3.655240189,444390.17,4471517.84,https://goo.gl/maps/1PSFgJDeysqLtwJn7,Jueves,Tarde,14:00:00,15:30:00,http://run.gob.es/PuntoMOVILResiduos
Punto limpio móvil,"Avenida Pablo Neruda, 89",,Avenida,Pablo Neruda,P,89,Puente de Vallecas,13,40.38115207,-3.660117241,443966.93,4470271.88,https://goo.gl/maps/ChgzsC8ZeQqW8i7L6,Sábado,Tarde,15:45:00,17:15:00,http://run.gob.es/PuntoMOVILResiduos
Punto limpio móvil,"Avenida Rafael Alberti, 34",,Avenida,Rafael Alberti,P,34,Puente de Vallecas,13,40.3847149,-3.642651544,445452.364,4470656.429,https://goo.gl/maps/MJjexN2i4PK2mSiv7,Sábado,Tarde,17:30:00,19:00:00,http://run.gob.es/PuntoMOVILResiduos
Punto limpio móvil,"Calle Rafael Fernández Hijicos, 32",,Calle,Rafael Fernández Hijicos,P,32,Puente de Vallecas,13,40.39040013,-3.635409994,446071.5586,4471283.041,https://goo.gl/maps/shXZQU2WZAYkW63p7,Martes,Tarde,17:30:00,19:00:00,http://run.gob.es/PuntoMOVILResiduos
Punto limpio móvil,"Calle Ramírez Tomé, 38",,Calle,Ramírez Tomé,P,38,Puente de Vallecas,13,40.38878583,-3.646501324,445128.9,4471110.68,https://goo.gl/maps/p5ZetZwM6DS6vKJ86,Jueves,Mañana,10:30:00,12:00:00,http://run.gob.es/PuntoMOVILResiduos
Punto limpio móvil,"Calle Ruidera, 26",,Calle,Ruidera,P,26,Puente de Vallecas,13,40.38027879,-3.675442596,442665.31,4470184.77,https://goo.gl/maps/ZqZraJtgUmhejyCw9,Jueves,Tarde,19:15:00,20:45:00,http://run.gob.es/PuntoMOVILResiduos
Punto limpio móvil,"Avenida San Diego, 78",Intersección con Calle Manuel Maroto,Avenida,San Diego,P,78,Puente de Vallecas,13,40.38777013,-3.669399994,443184.5325,4471012.4,https://goo.gl/maps/qwNT7hpGRavsSTvM7,Martes,Mañana,10:30:00,12:00:00,http://run.gob.es/PuntoMOVILResiduos
Punto limpio móvil,"Avenida San Diego, 111",,Avenida,San Diego,P,111,Puente de Vallecas,13,40.38265243,-3.664107653,443629.458,4470440.954,https://goo.gl/maps/5BNVeAwpgTN8nUZe8,Sábado,Mañana,12:15:00,13:45:00,http://run.gob.es/PuntoMOVILResiduos
Punto limpio móvil,"Calle Santa Marta, 15",,Calle,Santa Marta,P,15,Puente de Vallecas,13,40.40275803,-3.662025225,443822.93,4472671.33,https://goo.gl/maps/yNC4RnDb9KmXZhqV7,Jueves,Mañana,07:00:00,08:30:00,http://run.gob.es/PuntoMOVILResiduos
Punto limpio móvil,"Camino Valderribas, 99",,Camino,Valderribas,P,99,Puente de Vallecas,13,40.40237793,-3.668196679,443298.92,4472633.08,https://goo.gl/maps/QnYdoBECRjdVLBKYA,Jueves,Mañana,08:45:00,10:15:00,http://run.gob.es/PuntoMOVILResiduos
Punto limpio móvil,"Calle Camino de los Vinateros, 10-12",,Calle,Camino de los Vinateros,P,10-12,Moratalaz,14,40.41063083,-3.660460934,443962.201,4473544.212,https://goo.gl/maps/3QoANCJTdsqDm9UF9,Viernes,Tarde,14:00:00,15:30:00,http://run.gob.es/PuntoMOVILResiduos
Punto limpio móvil,"Calle Camino de los Vinateros, 108",,Calle,Camino de los Vinateros,P,108,Moratalaz,14,40.40821598,-3.646939656,445107.48,4473267.68,https://goo.gl/maps/37PLJUocZYuabFAL9,Viernes,Mañana,10:30:00,12:00:00,http://run.gob.es/PuntoMOVILResiduos
Punto limpio móvil,"Calle Camino de los Vinateros, 63",,Calle,Camino de los Vinateros,P,63,Moratalaz,14,40.41042488,-3.651935154,444685.42,4473515.98,https://goo.gl/maps/PoYyRwstPQbXZBKJ7,Viernes,Mañana,12:15:00,13:45:00,http://run.gob.es/PuntoMOVILResiduos
Punto limpio móvil,"Avenida Doctor García Tapia, 135",,Avenida,Doctor García Tapia,P,135,Moratalaz,14,40.40915774,-3.63711767,445941.63,4473366.16,https://goo.gl/maps/iGqZwtEUBVFdBoTR8,Jueves,Tarde,17:30:00,19:00:00,http://run.gob.es/PuntoMOVILResiduos
Punto limpio móvil,"Calle Encomienda de Palacios, 360",,Calle,Encomienda de Palacios,P,360,Moratalaz,14,40.39688953,-3.634478572,446155.78,4472002.79,https://goo.gl/maps/J5rFEqiMLU5GjDUf6,Viernes,Mañana,08:45:00,10:15:00,http://run.gob.es/PuntoMOVILResiduos
Punto limpio móvil,"Calle Fuente Carrantona, 41",,Calle,Fuente Carrantona,P,41,Moratalaz,14,40.40832878,-3.631194585,446443.54,4473270.54,https://goo.gl/maps/N5CMgfbYSvy1Yw326,Jueves,Tarde,19:15:00,20:45:00,http://run.gob.es/PuntoMOVILResiduos
Punto limpio móvil,"Calle Hacienda de Pavones, 220",,Calle,Hacienda de Pavones,P,220,Moratalaz,14,40.40132224,-3.640043602,445687.07,4472498.22,https://goo.gl/maps/mPBM6Dsmmssz795T6,Viernes,Mañana,07:00:00,08:30:00,http://run.gob.es/PuntoMOVILResiduos
Punto limpio móvil,"Calle Hacienda de Pavones, 72",,Calle,Hacienda de Pavones,P,72,Moratalaz,14,40.40345595,-3.646165909,445169.27,4472738.84,https://goo.gl/maps/uBNDJS7ptcTc5MiY8,Viernes,Mañana,08:45:00,10:15:00,http://run.gob.es/PuntoMOVILResiduos
Punto limpio móvil,"Avenida Moratalaz, 39",,Avenida,Moratalaz,P,39,Moratalaz,14,40.40754695,-3.658655805,444112.81,4473200.76,https://goo.gl/maps/LLnMr55NmAWwq8SY8,Viernes,Tarde,15:45:00,17:15:00,http://run.gob.es/PuntoMOVILResiduos
Punto limpio móvil,"Calle Pico de Artilleros, 55",,Calle,Pico de Artilleros,P,55,Moratalaz,14,40.40481013,-3.641189994,445592.5969,4472886.078,https://goo.gl/maps/ALtQM7N7ioVWKJow8,Viernes,Tarde,17:30:00,19:00:00,http://run.gob.es/PuntoMOVILResiduos
Punto limpio móvil,"Calle Tacona, 1",Intersección con Arroyo Fontarrón,Calle,Tacona,P,1,Moratalaz,14,40.3964446,-3.641144577,445589.716,4471957.484,https://goo.gl/maps/29cSZHvwxrQXti9y5,Viernes,Tarde,19:15:00,20:45:00,http://run.gob.es/PuntoMOVILResiduos
Punto limpio móvil,"Calle Valdebernardo, 45",,Calle,Valdebernardo,P,45,Moratalaz,14,40.40353147,-3.631848368,446384.26,4472738.44,https://goo.gl/maps/mEWFkr3g1FUrvx1d6,Viernes,Mañana,07:00:00,08:30:00,http://run.gob.es/PuntoMOVILResiduos
Punto limpio móvil,"Calle Agastia, 42",Frente al número 42,Calle,Agastia,P,42,Ciudad Lineal,15,40.44556187,-3.65100177,444793.354,4477415.589,https://goo.gl/maps/4bBqv7h1RzjqrFMSA,Lunes,Tarde,14:00:00,15:30:00,http://run.gob.es/PuntoMOVILResiduos
Punto limpio móvil,"Calle Alcalá, 287",Intersección con Calle Buen Gobernador,Calle,Alcalá,P,287,Ciudad Lineal,15,40.43232013,-3.654259994,444506.159,4475947.799,https://goo.gl/maps/jNuWKF1VQ6ddhWx77,Martes,Tarde,15:45:00,17:15:00,http://run.gob.es/PuntoMOVILResiduos
Punto limpio móvil,"Calle Arturo Soria, 242",,Calle,Arturo Soria,P,242,Ciudad Lineal,15,40.46558716,-3.66539655,443589.381,4479647.497,https://goo.gl/maps/Tgj35GwdQMMYUTMWA,Lunes,Tarde,17:30:00,19:00:00,http://run.gob.es/PuntoMOVILResiduos
Punto limpio móvil,"Calle Arturo Soria, 320",,Calle,Arturo Soria,P,320,Ciudad Lineal,15,40.47826258,-3.668261241,443357.17,4481056.31,https://goo.gl/maps/kBw2HC3z2Vw7XGe99,Viernes,Mañana,10:30:00,12:00:00,http://run.gob.es/PuntoMOVILResiduos
Punto limpio móvil,Calle Cañas,Frente al número 13,Calle,Cañas,P,S/N,Ciudad Lineal,15,40.45793674,-3.659440281,444087.999,4478794.509,https://goo.gl/maps/biUWxguqRajvZZeM7,Lunes,Tarde,15:45:00,17:15:00,http://run.gob.es/PuntoMOVILResiduos
Punto limpio móvil,"Calle Elfo, 55-57",,Calle,Elfo,P,55-57,Ciudad Lineal,15,40.43380013,-3.652179994,444683.7971,4476110.774,https://goo.gl/maps/jZ64bgmsEuLHE5Gj9,Viernes,Tarde,15:45:00,17:15:00,http://run.gob.es/PuntoMOVILResiduos
Punto limpio móvil,"Calle Ezequiel Solana, 73",,Calle,Ezequiel Solana,P,73,Ciudad Lineal,15,40.42845615,-3.643037113,445454.96,4475511.91,https://goo.gl/maps/32B9wKF6bFtLXnt66,Martes,Tarde,19:15:00,20:45:00,http://run.gob.es/PuntoMOVILResiduos
Punto limpio móvil,"Calle Gómez de Avellaneda, 14",,Calle,Gómez de Avellaneda,P,14,Ciudad Lineal,15,40.43377013,-3.642789994,445480.2135,4476101.607,https://goo.gl/maps/e6dqqkuz8xY9KvQKA,Lunes,Mañana,10:30:00,12:00:00,http://run.gob.es/PuntoMOVILResiduos
Punto limpio móvil,Calle Hermanos Machado,Intersección con Calle Los Collados,Calle,Hermanos Machado,P,S/N,Ciudad Lineal,15,40.43113013,-3.649019994,444949.6445,4475812.431,https://goo.gl/maps/45zSuUig9i2H5Xpk8,Martes,Tarde,17:30:00,19:00:00,http://run.gob.es/PuntoMOVILResiduos
Punto limpio móvil,"Avenida Hermanos García Noblejas, 158",,Avenida,Hermanos García Noblejas,P,158,Ciudad Lineal,15,40.42501632,-3.629068666,446637.11,4475121.56,https://goo.gl/maps/3HGn1chT21RxrtfY7,Viernes,Tarde,19:15:00,20:45:00,http://run.gob.es/PuntoMOVILResiduos
Punto limpio móvil,"Calle José del Hierro, 37",Intersección con Calle Rosalía Trujillo,Calle,José del Hierro,P,37,Ciudad Lineal,15,40.43991309,-3.64485179,445310.314,4476784.749,https://goo.gl/maps/z7Wro6Hbkz3Knhr16,Viernes,Tarde,14:00:00,15:30:00,http://run.gob.es/PuntoMOVILResiduos
Punto limpio móvil,"Calle Julio Dánvila, 1",Frente al colegio,Calle,Julio Dánvila,P,1,Ciudad Lineal,15,40.47154013,-3.666999994,443458.437,4480309.305,https://goo.gl/maps/Sq87YKgZQeaAoVuJ6,Lunes,Tarde,19:15:00,20:45:00,http://run.gob.es/PuntoMOVILResiduos
Punto limpio móvil,"Calle María Teresa Sáenz de Heredia, 44",,Calle,María Teresa Sáenz de Heredia,P,44,Ciudad Lineal,15,40.4255882,-3.650847751,444790.08,4475198.42,https://goo.gl/maps/BJZZcf8hzKiVuYRy6,Viernes,Tarde,17:30:00,19:00:00,http://run.gob.es/PuntoMOVILResiduos
Punto limpio móvil,"Calle San Marcelo, 6",,Calle,San Marcelo,P,6,Ciudad Lineal,15,40.42706013,-3.658269994,444161.681,4475366.468,https://goo.gl/maps/Wu7guiE3FbDrRxtL7,Lunes,Mañana,07:00:00,08:30:00,http://run.gob.es/PuntoMOVILResiduos
Punto limpio móvil,Calle Santurce,Intersección con Calle Luis Ruiz,Calle,Santurce,P,S/N,Ciudad Lineal,15,40.42719013,-3.635689994,446077.1657,4475366.871,https://goo.gl/maps/ACkuSvCXgXHnUhrJ7,Lunes,Mañana,08:45:00,10:15:00,http://run.gob.es/PuntoMOVILResiduos
Punto limpio móvil,"Calle Torrelaguna, 66",,Calle,Torrelaguna,P,66,Ciudad Lineal,15,40.44877423,-3.657036057,444284.28,4477775.95,https://goo.gl/maps/Lu7ErZvCAX5Vb6gM8,Viernes,Mañana,12:15:00,13:45:00,http://run.gob.es/PuntoMOVILResiduos
Punto limpio móvil,"Calle Virgen de África, 14",,Calle,Virgen de África,P,14,Ciudad Lineal,15,40.43834992,-3.653981217,444534.76,4476616.93,https://goo.gl/maps/7nVGxxAm3d2JXmGG8,Lunes,Mañana,12:15:00,13:45:00,http://run.gob.es/PuntoMOVILResiduos
Punto limpio móvil,"Calle Abelias, 1",Equina Avenida de los Arces,Calle,Abelias,P,1,Hortaleza,16,40.45231082,-3.624796897,447020.91,4478148.67,https://goo.gl/maps/6TSngHxjY8n1oXWD8,Jueves,Tarde,15:45:00,17:15:00,http://run.gob.es/PuntoMOVILResiduos
Punto limpio móvil,Avenida Celio Villalba,Intersección con Calle Manizales,Avenida,Celio Villalba,P,S/N,Hortaleza,16,40.47455013,-3.636779994,446022.6128,4480624.497,https://goo.gl/maps/Uyi4RtGGcXLtLxRH6,Martes,Tarde,14:00:00,15:30:00,http://run.gob.es/PuntoMOVILResiduos
Punto limpio móvil,"Calle Cuevas de la Almanzora, 18",,Calle,Cuevas de la Almanzora,P,18,Hortaleza,16,40.47667771,-3.659140563,444128.944,4480874.574,https://goo.gl/maps/5Jx6Y4FSaoQCLydBA,Sábado,Mañana,10:30:00,12:00:00,http://run.gob.es/PuntoMOVILResiduos
Punto limpio móvil,"Carretera de Canillas, 39",Intersección con Calle Andrés Obispo,Carretera,de Canillas,P,39,Hortaleza,16,40.46314013,-3.648019994,445060.5374,4479364.917,https://goo.gl/maps/5ws65NxmNJJeDWTq5,Martes,Tarde,17:30:00,19:00:00,http://run.gob.es/PuntoMOVILResiduos
Punto limpio móvil,"Calle Estíbaliz, 28",Intersección con Calle Pablo Serano,Calle,Estíbaliz,P,28,Hortaleza,16,40.47024013,-3.648099994,445059.5408,4480153.069,https://goo.gl/maps/wVzNZZizSimsU4DN9,Jueves,Mañana,08:45:00,10:15:00,http://run.gob.es/PuntoMOVILResiduos
Punto limpio móvil,"Avenida Francisco Pi y Margall, 72",,Avenida,Francisco Pi y Margall,P,72,Hortaleza,16,40.49074059,-3.659086913,444145.15,4482435.53,https://goo.gl/maps/k3ZgfdkcXGHhdCn87,Sábado,Mañana,12:15:00,13:45:00,http://run.gob.es/PuntoMOVILResiduos
Punto limpio móvil,"Calle Luis Moya Blanco, 27",,Calle,Luis Moya Blanco,P,27,Hortaleza,16,40.49606013,-3.616409994,447765.988,4482999.861,https://goo.gl/maps/SRrxTcJfnPZT9PSU9,Sábado,Tarde,15:45:00,17:15:00,http://run.gob.es/PuntoMOVILResiduos
Punto limpio móvil,"Avenida Madroños, 61",,Avenida,Madroños,P,61,Hortaleza,16,40.45632013,-3.632859994,446340.3921,4478598.572,https://goo.gl/maps/DosXxogzqafNoo1k6,Martes,Tarde,19:15:00,20:45:00,http://run.gob.es/PuntoMOVILResiduos
Punto limpio móvil,"Calle Montearagón, 11",,Calle,Montearagón,P,11,Hortaleza,16,40.46341089,-3.658435542,444177.72,4479401.506,https://goo.gl/maps/e4K3sPXmvfS4ccxb9,Martes,Tarde,15:45:00,17:15:00,http://run.gob.es/PuntoMOVILResiduos
Punto limpio móvil,"Calle Moscatelar, 35",,Calle,Moscatelar,P,35,Hortaleza,16,40.45729245,-3.646516762,445183.23,4478714.89,https://goo.gl/maps/YszK7Rz7kMMnXFXu7,Jueves,Mañana,10:30:00,12:00:00,http://run.gob.es/PuntoMOVILResiduos
Punto limpio móvil,"Avenida Niceto Alcalá Zamora, 78",Intersección con Vicente Blasco Ibáñez,Avenida,Niceto Alcalá Zamora,P,78,Hortaleza,16,40.4965535,-3.652395738,444716.974,4483076.554,https://goo.gl/maps/RtTBdhtgrBSWCLYX9,Sábado,Tarde,14:00:00,15:30:00,http://run.gob.es/PuntoMOVILResiduos
Punto limpio móvil,"Avenida Prunos, 44",Intersección con Avenida Arroyo del Santo,Avenida,Prunos,P,44,Hortaleza,16,40.45255663,-3.622087825,447250.817,4478174.334,https://goo.gl/maps/mdNyL5kobem8XJnz7,Sábado,Mañana,08:45:00,10:15:00,http://run.gob.es/PuntoMOVILResiduos
Punto limpio móvil,"Avenida San Luis, 27",,Avenida,San Luis,P,27,Hortaleza,16,40.47099013,-3.656979994,444307.3836,4480241.884,https://goo.gl/maps/xQfPgbwJHVo9yeZZ6,Jueves,Mañana,07:00:00,08:30:00,http://run.gob.es/PuntoMOVILResiduos
Punto limpio móvil,"Calle Silvano, 97",Frente al número 97 (intersección con Avenida Machupichu),Calle,Silvano,P,97,Hortaleza,16,40.46261384,-3.634768951,446183.555,4479298.337,https://goo.gl/maps/3XsQTGDTLEtWu5YX9,Jueves,Mañana,12:15:00,13:45:00,http://run.gob.es/PuntoMOVILResiduos
Punto limpio móvil,"Camino Viejo de Burgos, 24",,Camino,Viejo de Burgos,P,24,Hortaleza,16,40.48188344,-3.63135024,446488.698,4481435.192,https://goo.gl/maps/QaS6AbdpSjkdusPH7,Sábado,Tarde,17:30:00,19:00:00,http://run.gob.es/PuntoMOVILResiduos
Punto limpio móvil,Avenida Virgen del Carmen,"Acera de los impares, frente al número 84",Avenida,Virgen del Carmen,P,S/N,Hortaleza,16,40.47550565,-3.647589094,445107.139,4480737.227,https://goo.gl/maps/Nmb8Hc9HzJDWVWmR8,Sábado,Tarde,19:15:00,20:45:00,http://run.gob.es/PuntoMOVILResiduos
Punto limpio móvil,"Paseo Alberto Palacios, 1",Intersección con Plaza Ágata,Paseo,Alberto Palacios,P,1,Villaverde,17,40.34647541,-3.709357091,439756.381,4466455.183,https://goo.gl/maps/CkpmWx6yEbieVXm68,Miércoles,Mañana,07:00:00,08:30:00,http://run.gob.es/PuntoMOVILResiduos
Punto limpio móvil,"Paseo Alberto Palacios, 76",,Paseo,Alberto Palacios,P,76,Villaverde,17,40.34368355,-3.715528398,439229.76,4466149.51,https://goo.gl/maps/JwELtcu8kTTgEG5f7,Miércoles,Mañana,08:45:00,10:15:00,http://run.gob.es/PuntoMOVILResiduos
Punto limpio móvil,Calle Arroyo de la Bulera,Frente al número 11,Calle,Arroyo de la Bulera,P,S/N,Villaverde,17,40.33887013,-3.680449994,442204.9051,4465591.733,https://goo.gl/maps/9tQTBgzQ5kMFEqNn6,Viernes,Mañana,12:15:00,13:45:00,http://run.gob.es/PuntoMOVILResiduos
Punto limpio móvil,"Calle Berrocal, 14",,Calle,Berrocal,P,14,Villaverde,17,40.34739104,-3.677737378,442442.55,4466535.77,https://goo.gl/maps/yh4KUFrYUYDgxiEr9,Miércoles,Mañana,12:15:00,13:45:00,http://run.gob.es/PuntoMOVILResiduos
Punto limpio móvil,"Calle Berrocal, 72",,Calle,Berrocal,P,72,Villaverde,17,40.34116319,-3.675264764,442647.266,4465842.885,https://goo.gl/maps/29FnH9gBf8FSvcm47,Viernes,Tarde,14:00:00,15:30:00,http://run.gob.es/PuntoMOVILResiduos
Punto limpio móvil,"Calle Carmen de Burgos, 4",,Calle,Carmen de Burgos,P,4,Villaverde,17,40.35742549,-3.684914537,441841.64,4467654.27,https://goo.gl/maps/BVxXkSd7shccUk2B9,Viernes,Tarde,15:45:00,17:15:00,http://run.gob.es/PuntoMOVILResiduos
Punto limpio móvil,"Calle Ciudadania, 6",,Calle,Ciudadania,P,6,Villaverde,17,40.35647756,-3.692286994,441214.792,4467553.923,https://goo.gl/maps/Jw54GMykLUU1sC3H9,Miércoles,Tarde,14:00:00,15:30:00,http://run.gob.es/PuntoMOVILResiduos
Punto limpio móvil,Calle Godella,"Detrás del número 100, en la plaza frente al número 116",Calle,Godella,P,S/N,Villaverde,17,40.340762,-3.688466,441525.68,4465807.01,https://goo.gl/maps/8NRV8qv1VD2k546M7,Miércoles,Mañana,10:30:00,12:00:00,http://run.gob.es/PuntoMOVILResiduos
Punto limpio móvil,"Calle la Canción del Olvido, 47",,Calle,La Canción del Olvido,P,47,Villaverde,17,40.35701013,-3.699809994,440576.4426,4467618.063,https://goo.gl/maps/pZHe8U1VXCxGKZyb8,Viernes,Tarde,19:15:00,20:45:00,http://run.gob.es/PuntoMOVILResiduos
Punto limpio móvil,"Calle La del Manojo de Rosas, 14",,Calle,La del Manojo de Rosas,P,14,Villaverde,17,40.35988379,-3.697565708,440769.53,4467935.53,https://goo.gl/maps/eRmCNkQ4FLk9mxdK7,Miércoles,Tarde,17:30:00,19:00:00,http://run.gob.es/PuntoMOVILResiduos
Punto limpio móvil,"Calle La del Manojo de Rosas, 95",,Calle,La del Manojo de Rosas,P,95,Villaverde,17,40.35313432,-3.698461892,440687.52,4467186.95,https://goo.gl/maps/PbW4bauQRijasPHE6,Miércoles,Tarde,19:15:00,20:45:00,http://run.gob.es/PuntoMOVILResiduos
Punto limpio móvil,"Calle Laguna Rodrigo, 7",,Calle,Laguna Rodrigo,P,7,Villaverde,17,40.35161857,-3.7063763,440014.09,4467024.04,https://goo.gl/maps/Aiah4S81BmL8CXib7,Viernes,Tarde,19:15:00,20:45:00,http://run.gob.es/PuntoMOVILResiduos
Punto limpio móvil,Avenida Rosales,Intersección con Calle Tántalo,Avenida,Rosales,P,S/N,Villaverde,17,40.35336013,-3.679539994,442294.5481,4467199.502,https://goo.gl/maps/BR5q4h1Lk9Rwu2846,Viernes,Mañana,10:30:00,12:00:00,http://run.gob.es/PuntoMOVILResiduos
Punto limpio móvil,Calle Santa Petronila,Intersección con Calle José del Pino,Calle,Santa Petronila,P,S/N,Villaverde,17,40.35071212,-3.692274736,441210.826,4466913.961,https://goo.gl/maps/CD4BtEPPSh2enMZh6,Viernes,Tarde,17:30:00,19:00:00,http://run.gob.es/PuntoMOVILResiduos
Punto limpio móvil,Calle Tertulia,Intersección con Calle Círculo,Calle,Tertulia,P,S/N,Villaverde,17,40.36226806,-3.693017119,441157.828,4468197.145,https://goo.gl/maps/X2zWWRDXRE5pJCHcA,Miércoles,Tarde,15:45:00,17:15:00,http://run.gob.es/PuntoMOVILResiduos
Punto limpio móvil,Calle Embalse de Navacerrada,Frente al número 50,Calle,Embalse de Navacerrada,P,S/N,Villa de Vallecas,18,40.36243065,-3.601593679,448920.513,4468158.395,https://goo.gl/maps/dhwk9GYjj7EUaaxs6,Jueves,Mañana,12:15:00,13:45:00,http://run.gob.es/PuntoMOVILResiduos
Punto limpio móvil,Calle Enrique García Álvarez,Frente al número 10,Calle,Enrique García Álvarez,P,S/N,Villa de Vallecas,18,40.38180013,-3.614779994,447815.8398,4470316.073,https://goo.gl/maps/ZdGSUj3V8HZr7aJS9,Martes,Mañana,12:15:00,13:45:00,http://run.gob.es/PuntoMOVILResiduos
Punto limpio móvil,"Paseo Federico García Lorca, 3",,Paseo,Federico García Lorca,P,3,Villa de Vallecas,18,40.37940569,-3.620995046,447286.42,4470053.98,,Jueves,Tarde,15:45:00,17:15:00,http://run.gob.es/PuntoMOVILResiduos
Punto limpio móvil,"Calle Fuentespina, 10",,Calle,Fuentespina,P,10,Villa de Vallecas,18,40.37947013,-3.606899994,448482.9443,4470052.826,https://goo.gl/maps/Cn1wwYkX921sBAhSA,Martes,Tarde,14:00:00,15:30:00,http://run.gob.es/PuntoMOVILResiduos
Punto limpio móvil,"Avenida Gavia, 14",,Avenida,Gavia,P,14,Villa de Vallecas,18,40.37507331,-3.610482743,448175.45,4469566.88,https://goo.gl/maps/hPFJGhVKBFgCrTZb6,Jueves,Tarde,17:30:00,19:00:00,http://run.gob.es/PuntoMOVILResiduos
Punto limpio móvil,"Avenida Gran Vía del Sureste, 55",,Avenida,Gran Vía del Suereste,P,55,Villa de Vallecas,18,40.35728524,-3.59317915,449631.14,4467582.44,https://goo.gl/maps/ChvJkXuqwzXJH5Hx8,Jueves,Mañana,07:00:00,08:30:00,http://run.gob.es/PuntoMOVILResiduos
Punto limpio móvil,"Avenida Gran Vía del Sureste, 11",,Avenida,Gran Vía del Sureste,P,11,Villa de Vallecas,18,40.36404321,-3.587633913,450106.99,4468329.42,https://goo.gl/maps/41rbK3q9Cfm3mjTe8,Jueves,Mañana,08:45:00,10:15:00,http://run.gob.es/PuntoMOVILResiduos
Punto limpio móvil,Avenida Las Suertes,Frente al número 67,Avenida,Las Suertes,P,S/N,Villa de Vallecas,18,40.36441415,-3.593433734,449614.83,4468373.88,https://goo.gl/maps/UbXyZ9tzuuraHidV8,Jueves,Mañana,10:30:00,12:00:00,http://run.gob.es/PuntoMOVILResiduos
Punto limpio móvil,"Bulevar Naturaleza, 13",,Bulevar,Naturaleza,P,13,Villa de Vallecas,18,40.37232002,-3.629789046,446534.33,4469272.76,https://goo.gl/maps/EkHoEM6Sb1cmutZc7,Martes,Mañana,10:30:00,12:00:00,http://run.gob.es/PuntoMOVILResiduos
Punto limpio móvil,"Calle Peñaranda de Bracamonte, 53",,Calle,Peñaranda de Bracamonte,P,53,Villa de Vallecas,18,40.366697,-3.61093895,448130.3,4468637.39,https://goo.gl/maps/kLU1h5TgzjJwfCJy7,Martes,Mañana,07:00:00,08:30:00,http://run.gob.es/PuntoMOVILResiduos
Punto limpio móvil,"Calle Puentelarrá, 13",,Calle,Puentelarrá,P,13,Villa de Vallecas,18,40.38246707,-3.609304279,448281.146,4470386.886,https://goo.gl/maps/xKWjxmFbaFdgFNHg9,Jueves,Tarde,19:15:00,20:45:00,http://run.gob.es/PuntoMOVILResiduos
Punto limpio móvil,"Calle Sierra Vieja, 1",,Calle,Sierra Vieja,P,1,Villa de Vallecas,18,40.37727079,-3.629576569,446556.28,4469822.16,https://goo.gl/maps/3fWFn5NNkBQj1j1u9,Jueves,Tarde,14:00:00,15:30:00,http://run.gob.es/PuntoMOVILResiduos
Punto limpio móvil,"Avenida Villa de Vallecas, 13",,Avenida,Villa de Vallecas,P,13,Villa de Vallecas,18,40.36959542,-3.618936523,447453.54,4468963.83,https://goo.gl/maps/xzg5FYy2TZQSNPFf8,Martes,Mañana,08:45:00,10:15:00,http://run.gob.es/PuntoMOVILResiduos
Punto limpio móvil,"Calle Abad Juan Catalán, 52-56",,Calle,Abad Juan Catalán,P,52-56,Vicálvaro,19,40.40648092,-3.592453479,449729.343,4473042.675,https://goo.gl/maps/6XgFhdgQyw5Rxrv88,Miércoles,Tarde,19:15:00,20:45:00,http://run.gob.es/PuntoMOVILResiduos
Punto limpio móvil,"Avenida Blas de Lezo, 22",,Avenida,Blas de Lezo,P,22,Vicálvaro,19,40.40662464,-3.552546555,453115.6288,4473036.695,https://goo.gl/maps/Rq4Np9AFPxA6kfSe6,Viernes,Mañana,12:15:00,13:30:00,http://run.gob.es/PuntoMOVILResiduos
Punto limpio móvil,"Calle Casalarreina, 3",Intersección con Plaza de la Vicalvarada,Calle,Casalarreina,P,3,Vicálvaro,19,40.409418,-3.610567255,448194.602,4473379.148,https://goo.gl/maps/g2CFqGiz9Wkfsxcj9,Miércoles,Tarde,14:00:00,15:30:00,http://run.gob.es/PuntoMOVILResiduos
Punto limpio móvil,"Calle Cordel de Pavones, 46",,Calle,Cordel de Pavones,P,46,Vicálvaro,19,40.39783703,-3.619708485,447409.97,4472099.07,https://goo.gl/maps/85QxiiSEihpZ3AAy5,Jueves,Mañana,10:30:00,12:00:00,http://run.gob.es/PuntoMOVILResiduos
Punto limpio móvil,"Bulevar Indalecio Prieto, 9",,Bulevar,Indalecio Prieto,P,9,Vicálvaro,19,40.40324833,-3.619895988,447398.27,4472699.83,https://goo.gl/maps/uuGFVq3W6RbSh77F7,Jueves,Mañana,12:15:00,13:45:00,http://run.gob.es/PuntoMOVILResiduos
Punto limpio móvil,Calle Minerva,"Intersección con Calle Campo de la Torre, 19",Calle,Minerva,P,S/N,Vicálvaro,19,40.39696013,-3.605319994,448630.3547,4471993.274,https://goo.gl/maps/hkQxexZYNc3ddGgj9,Jueves,Mañana,07:00:00,08:30:00,http://run.gob.es/PuntoMOVILResiduos
Punto limpio móvil,"Calle Minerva, 7",,Calle,Minerva,P,7,Vicálvaro,19,40.40383525,-3.598022415,449254.82,4472752.19,https://goo.gl/maps/G5UztoHFe5NvkT6x7,Miércoles,Tarde,17:30:00,19:00:00,http://run.gob.es/PuntoMOVILResiduos
Punto limpio móvil,Calle Pergamino,Frente al número 30,Calle,Pergamino,P,S/N,Vicálvaro,19,40.39466194,-3.623704718,447068.351,4471749.023,https://goo.gl/maps/JujuD4pn8Mk8CNdx6,Jueves,Mañana,08:45:00,10:15:00,http://run.gob.es/PuntoMOVILResiduos
Punto limpio móvil,"Calle Villardondiego, 39-41",,Calle,Villardondiego,P,39-41,Vicálvaro,19,40.40445729,-3.60804054,448405.202,4472827.036,https://goo.gl/maps/jrH7JKZ3a36xz84i7,Miércoles,Tarde,15:45:00,17:15:00,http://run.gob.es/PuntoMOVILResiduos
Punto limpio móvil,"Calle Albarracín, 35",Edificio Ayuntamiento de Madrid,Calle,Albarracín,P,35,San Blas-Canillejas,20,40.43183053,-3.630418644,446527.99,4475878.75,https://goo.gl/maps/VohQkC9y1xD1a343A,Jueves,Mañana,12:15:00,13:45:00,http://run.gob.es/PuntoMOVILResiduos
Punto limpio móvil,Calle Albericia,Intersección con Calle Arcos del Jalón,Calle,Albericia,P,S/N,San Blas-Canillejas,20,40.42447465,-3.615522535,447785.795,4475053.342,https://goo.gl/maps/ZKEAEq3yTgUSYaKE7,Jueves,Tarde,15:45:00,17:15:00,http://run.gob.es/PuntoMOVILResiduos
Punto limpio móvil,"Calle Boltaña, 20",,Calle,Boltaña,P,20,San Blas-Canillejas,20,40.44479404,-3.613450944,447977.19,4477307.564,https://goo.gl/maps/SunPAWQn8AxwcuVS8,Sábado,Mañana,08:45:00,10:15:00,http://run.gob.es/PuntoMOVILResiduos
Punto limpio móvil,Calle Carpintería,Intersección con Calle Amposta,Calle,Carpintería,P,S/N,San Blas-Canillejas,20,40.42558013,-3.622589994,447187.1298,4475180.249,https://goo.gl/maps/zFWgjL6EKq6jBums7,Miércoles,Mañana,12:15:00,13:45:00,http://run.gob.es/PuntoMOVILResiduos
Punto limpio móvil,Calle Castillo de Uclés,"Intersección con Calle Castillo de Simancas, frente a la Calle Yuncos, 1",Calle,Castillo de Uclés,P,S/N,San Blas-Canillejas,20,40.43015635,-3.623234722,447136.022,4475688.594,https://goo.gl/maps/pSf69wL4WKj8nGtr7,Miércoles,Mañana,08:45:00,10:15:00,http://run.gob.es/PuntoMOVILResiduos
Punto limpio móvil,"Avenida Fermina Sevillano, 26",,Avenida,Fermina Sevillano,P,26,San Blas-Canillejas,20,40.44483484,-3.56906922,451740.967,4477286.895,https://goo.gl/maps/HKGQgCn1CrHT2wx68,Viernes,Mañana,07:00:00,08:30:00,http://run.gob.es/PuntoMOVILResiduos
Punto limpio móvil,Avenida Guadalajara,Intersección con Calle San Román del Valle,Avenida,Guadalajara,P,S/N,San Blas-Canillejas,20,40.41929933,-3.621029333,447314.618,4474482.153,https://goo.gl/maps/V1iUrc4RR55bfE9n9,Jueves,Tarde,14:00:00,15:30:00,http://run.gob.es/PuntoMOVILResiduos
Punto limpio móvil,"Avenida Hellín, 17",,Avenida,Hellín,P,17,San Blas-Canillejas,20,40.43080013,-3.615859994,447762.0628,4475755.666,https://goo.gl/maps/CwpagervNwcr18SCA,Miércoles,Mañana,10:30:00,12:00:00,http://run.gob.es/PuntoMOVILResiduos
Punto limpio móvil,"Avenida Hermanos García Noblejas, 1",,Avenida,Hermanos García Noblejas,P,1,San Blas-Canillejas,20,40.43772165,-3.637609719,445922.76,4476537.04,https://goo.gl/maps/MzhH4H3H7WExGWcbA,Miércoles,Mañana,07:00:00,08:30:00,http://run.gob.es/PuntoMOVILResiduos
Punto limpio móvil,Calle Nicolasa Gómez,Frente al número 80,Calle,Nicolasa Gómez,P,S/N,San Blas-Canillejas,20,40.43846013,-3.611789994,448113.1754,4476603.524,https://goo.gl/maps/t2jY1Lp6vSx2Gs9k6,Sábado,Mañana,10:30:00,12:00:00,http://run.gob.es/PuntoMOVILResiduos
Punto limpio móvil,"Avenida Niza, 25",En el tramo de vía entre los números 13 y 25,Avenida,Niza,P,25,San Blas-Canillejas,20,40.42792648,-3.606913356,448518.74,4475431.44,https://goo.gl/maps/qMUjh4BvzJ46ddg3A,Jueves,Tarde,17:30:00,19:00:00,http://run.gob.es/PuntoMOVILResiduos
Punto limpio móvil,Avenida Segunda,Frente al número 5 aproximadamente,Avenida,Segunda,P,S/N,San Blas-Canillejas,20,40.44735399,-3.594355582,449598.466,4477580.644,https://goo.gl/maps/K6HKFrcMykaF8hTd9,Viernes,Mañana,08:45:00,10:15:00,http://run.gob.es/PuntoMOVILResiduos
Punto limpio móvil,Calle Sofía,"Intersección con Calle Bélgica, 205",Calle,Sofía,P,S/N,San Blas-Canillejas,20,40.42927013,-3.601609994,448969.6145,4475577.508,https://goo.gl/maps/nXovtMEN6bjRCi3M9,Jueves,Tarde,19:15:00,20:45:00,http://run.gob.es/PuntoMOVILResiduos
Punto limpio móvil,"Calle Tampico, 79",,Calle,Tampico,P,79,San Blas-Canillejas,20,40.44475344,-3.635651261,446094.48,4477316.37,https://goo.gl/maps/RX4jX781uARmG7d2A,Sábado,Mañana,07:00:00,08:30:00,http://run.gob.es/PuntoMOVILResiduos
Punto limpio móvil,"Paseo Alameda de Osuna, 50",,Paseo,Alameda de Osuna,P,50,Barajas,21,40.45461153,-3.597744925,449316.5,4478388.17,https://goo.gl/maps/ExmFAxqYELKTLphG7,Jueves,Tarde,17:30:00,19:00:00,http://run.gob.es/PuntoMOVILResiduos
Punto limpio móvil,"Calle Babilonia, 33",,Calle,Babilonia,P,33,Barajas,21,40.46747627,-3.584841288,450420.08,4479808.83,https://goo.gl/maps/5rFXeMMG7ps6wKAg8,Jueves,Tarde,19:15:00,20:45:00,http://run.gob.es/PuntoMOVILResiduos
Punto limpio móvil,"Calle Bahía de Cádiz, 32",,Calle,Bahía de Cádiz,P,32,Barajas,21,40.46380544,-3.594330551,449612.88,4479406.74,https://goo.gl/maps/UuPdvyEu8QoVbnVg6,Jueves,Tarde,17:30:00,19:00:00,http://run.gob.es/PuntoMOVILResiduos
Punto limpio móvil,"Avenida Logroño, 160-162",Entrada Residencial El Capricho,Avenida,Logroño,P,160-162,Barajas,21,40.47493317,-3.582026531,450664.16,4480634.97,https://goo.gl/maps/wMWqxJJe5LyTCP3u5,Jueves,Tarde,19:15:00,20:45:00,http://run.gob.es/PuntoMOVILResiduos
Punto limpio móvil,"Avenida Manuel Fraga Iribarne, 35",,Avenida,Manuel Fraga Iribarne,P,35,Barajas,21,40.48826013,-3.608829994,448402.3397,4482129.596,https://goo.gl/maps/cYRHVSZfXZ9hjTTGA,Jueves,Tarde,14:00:00,15:30:00,http://run.gob.es/PuntoMOVILResiduos
Punto limpio móvil,"Plaza Mayor de Barajas, 19",,Plaza,Mayor de Barajas,P,19,Barajas,21,40.47350059,-3.57734166,451060.238,4480473.346,https://goo.gl/maps/yEKbmnSKNGTU8wJC9,Martes,Mañana,12:15:00,13:45:00,http://run.gob.es/PuntoMOVILResiduos
Punto limpio móvil,"Plaza Navío, 1",,Plaza,Navío,P,1,Barajas,21,40.45572379,-3.588317484,450116.691,4478506.263,https://goo.gl/maps/hVhTWsaHN4wYwH7N9,Martes,Mañana,08:45:00,10:15:00,http://run.gob.es/PuntoMOVILResiduos
Punto limpio móvil,"Calle Playa de Zarauz, 1",,Calle,Playa de Zarauz,P,1,Barajas,21,40.47325425,-3.592435163,449780.61,4480454.48,https://goo.gl/maps/pBjeZCN4ihNSBakEA,Jueves,Tarde,15:45:00,17:15:00,http://run.gob.es/PuntoMOVILResiduos
Punto limpio móvil,"Calle Pradoluengo, 243",,Calle,Pradoluengo,P,243,Barajas,21,40.45128409,-3.582005708,450648.62,4478009.91,https://goo.gl/maps/r6jSq1NP6mWufRXU9,Martes,Mañana,07:00:00,08:30:00,http://run.gob.es/PuntoMOVILResiduos
Punto limpio móvil,"Calle Ribera del Sena, 21",Esquina con edificio Ayuntamiento de Madrid,Calle,Ribera del Sena,P,21,Barajas,21,40.46197595,-3.617672094,447632.56,4479217.25,https://goo.gl/maps/Z9K2MKmaFGtoWtSm6,Jueves,Tarde,14:00:00,15:30:00,http://run.gob.es/PuntoMOVILResiduos
Punto limpio móvil,"Calle Rioja, 27",,Calle,Rioja,P,27,Barajas,21,40.45993074,-3.585311084,450374.7,4478971.54,https://goo.gl/maps/1t9zjPPhqbdAKqxV8,Martes,Mañana,10:30:00,12:00:00,http://run.gob.es/PuntoMOVILResiduos
